--- 
- 
  ? !ruby/symbol address
  : 四川省甘孜县第一完全小学
  ? !ruby/symbol contact
  : " 高继英 "
  ? !ruby/symbol geo_id
  : 294
  ? !ruby/symbol intro
  : ~
  ? !ruby/symbol latitude
  : "30.1413603"
  ? !ruby/symbol longitude
  : "101.8657064"
  ? !ruby/symbol name
  : 甘孜州甘孜县第一完全小学
  ? !ruby/symbol old_id
  : 1
- 
  ? !ruby/symbol address
  : 八宿县然乌镇中心小学
  ? !ruby/symbol contact
  : "洛松旺堆 未知"
  ? !ruby/symbol geo_id
  : 325
  ? !ruby/symbol intro
  : ~
  ? !ruby/symbol latitude
  : "29.50296385625194"
  ? !ruby/symbol longitude
  : "96.7510986328125"
  ? !ruby/symbol name
  : 然乌镇中心小学
  ? !ruby/symbol old_id
  : 3
- 
  ? !ruby/symbol address
  : 林廓北路拉萨中学对面雪域幸福甜茶馆
  ? !ruby/symbol contact
  : "达珍 13989010358"
  ? !ruby/symbol geo_id
  : 324
  ? !ruby/symbol intro
  : ~
  ? !ruby/symbol latitude
  : "29.6880527498568"
  ? !ruby/symbol longitude
  : "91.0986328125"
  ? !ruby/symbol name
  : 西藏拉萨德吉孤儿院
  ? !ruby/symbol old_id
  : 5
- 
  ? !ruby/symbol address
  : "西藏林芝地区墨脱驻八一办事处  德庆拉姆 转 背崩乡希望小学"
  ? !ruby/symbol contact
  : "新卫 13989948810"
  ? !ruby/symbol geo_id
  : 330
  ? !ruby/symbol intro
  : ~
  ? !ruby/symbol latitude
  : "29.24184732190469"
  ? !ruby/symbol longitude
  : "95.17541885375977"
  ? !ruby/symbol name
  : 背崩乡希望小学
  ? !ruby/symbol old_id
  : 6
- 
  ? !ruby/symbol address
  : 西藏拉萨市当雄县龙仁乡中心小学
  ? !ruby/symbol contact
  : "巴桑次仁 13658983889"
  ? !ruby/symbol geo_id
  : 324
  ? !ruby/symbol intro
  : ~
  ? !ruby/symbol latitude
  : "30.49868025596334"
  ? !ruby/symbol longitude
  : "91.32282257080078"
  ? !ruby/symbol name
  : 西藏拉萨市当雄县龙仁乡中心小学
  ? !ruby/symbol old_id
  : 7
- 
  ? !ruby/symbol address
  : 定日县扎西宗乡巴松完小
  ? !ruby/symbol contact
  : "扎西 13989924794"
  ? !ruby/symbol geo_id
  : 327
  ? !ruby/symbol intro
  : ~
  ? !ruby/symbol latitude
  : "28.4200020"
  ? !ruby/symbol longitude
  : "87.0209401"
  ? !ruby/symbol name
  : 巴松完小（藏安小学）
  ? !ruby/symbol old_id
  : 8
- 
  ? !ruby/symbol address
  : 霍城县惠远镇湟渠小学
  ? !ruby/symbol contact
  : "赵伊斌 13150216718"
  ? !ruby/symbol geo_id
  : 384
  ? !ruby/symbol intro
  : ~
  ? !ruby/symbol latitude
  : "43.9937112"
  ? !ruby/symbol longitude
  : "80.9090268"
  ? !ruby/symbol name
  : 湟渠小学
  ? !ruby/symbol old_id
  : 9
- 
  ? !ruby/symbol address
  : 河北省张北县沽源九连城镇寄宿制小学
  ? !ruby/symbol contact
  : "裴校长 13932312798 13623399768"
  ? !ruby/symbol geo_id
  : 10
  ? !ruby/symbol intro
  : ~
  ? !ruby/symbol latitude
  : "41.5624036"
  ? !ruby/symbol longitude
  : "114.9944328"
  ? !ruby/symbol name
  : 九连城镇寄宿制小学
  ? !ruby/symbol old_id
  : 10
- 
  ? !ruby/symbol address
  : 沧源县勐角乡翁丁村
  ? !ruby/symbol contact
  : "杨岩块 13759318884"
  ? !ruby/symbol geo_id
  : 314
  ? !ruby/symbol intro
  : ~
  ? !ruby/symbol latitude
  : "23.16561366331258"
  ? !ruby/symbol longitude
  : "99.2559814453125"
  ? !ruby/symbol name
  : 翁丁村小学
  ? !ruby/symbol old_id
  : 11
- 
  ? !ruby/symbol address
  : 红原县查尔马乡中心小学
  ? !ruby/symbol contact
  : "让俄（红原广播局）  13882498805"
  ? !ruby/symbol geo_id
  : 293
  ? !ruby/symbol intro
  : ~
  ? !ruby/symbol latitude
  : "33.198476834933004"
  ? !ruby/symbol longitude
  : "102.01698303222656"
  ? !ruby/symbol name
  : 查尔马乡中心小学
  ? !ruby/symbol old_id
  : 16
- 
  ? !ruby/symbol address
  : 龙胜县泗水乡潘内村完全小学
  ? !ruby/symbol contact
  : "韦强东 13977369460"
  ? !ruby/symbol geo_id
  : 241
  ? !ruby/symbol intro
  : ~
  ? !ruby/symbol latitude
  : "25.8554712"
  ? !ruby/symbol longitude
  : "110.0973514"
  ? !ruby/symbol name
  : 潘内村完全小学
  ? !ruby/symbol old_id
  : 17
- 
  ? !ruby/symbol address
  : 沧源县勐角乡芒巩村
  ? !ruby/symbol contact
  : "翁丁村 13759318884"
  ? !ruby/symbol geo_id
  : 314
  ? !ruby/symbol intro
  : ~
  ? !ruby/symbol latitude
  : "23.2301029"
  ? !ruby/symbol longitude
  : "99.2364100"
  ? !ruby/symbol name
  : 芒巩村小学
  ? !ruby/symbol old_id
  : 18
- 
  ? !ruby/symbol address
  : 龙胜县龙胜镇山东村完全小学
  ? !ruby/symbol contact
  : "韦定贵 0773-7515490（家） 137-6872-7441"
  ? !ruby/symbol geo_id
  : 241
  ? !ruby/symbol intro
  : ~
  ? !ruby/symbol latitude
  : "25.7968158"
  ? !ruby/symbol longitude
  : "110.0102386"
  ? !ruby/symbol name
  : 山东村完全小学
  ? !ruby/symbol old_id
  : 19
- 
  ? !ruby/symbol address
  : 四川省南充市蓬安县
  ? !ruby/symbol contact
  : " "
  ? !ruby/symbol geo_id
  : 285
  ? !ruby/symbol intro
  : ~
  ? !ruby/symbol latitude
  : "31.0285280"
  ? !ruby/symbol longitude
  : "106.4122117"
  ? !ruby/symbol name
  : 南充市蓬安县金汽小学
  ? !ruby/symbol old_id
  : 20
- 
  ? !ruby/symbol address
  : "云南省迪庆州德钦县德钦普利藏文学校                         "
  ? !ruby/symbol contact
  : "费菲 13717989074"
  ? !ruby/symbol geo_id
  : 322
  ? !ruby/symbol intro
  : 为藏族孩子能学习到自己民族的语言和文化，为一些年少孤苦的藏族孩子能读书上学，阿牛校长于1997年在梅里雪山脚下创办了全免费制的德钦普利藏文学校，意在通过教育普及众利。学校成立十余年，得到了德钦县政府、县教委和社会各界团体及善心个人的大力资助，由此并不断发展和成长。
  ? !ruby/symbol latitude
  : "28.466540897857932"
  ? !ruby/symbol longitude
  : "98.92420291900635"
  ? !ruby/symbol name
  : 普利藏文学校
  ? !ruby/symbol old_id
  : 21
- 
  ? !ruby/symbol address
  : 阿坝州金川县阿科里乡中心校
  ? !ruby/symbol contact
  : "尼诺 0837 8835268（小灵通）  0837 2522293（办公室）0837 2521051（家）"
  ? !ruby/symbol geo_id
  : 293
  ? !ruby/symbol intro
  : ~
  ? !ruby/symbol latitude
  : "31.5419104"
  ? !ruby/symbol longitude
  : "101.6728148"
  ? !ruby/symbol name
  : 阿坝州金川县阿科里中心小学
  ? !ruby/symbol old_id
  : 22
- 
  ? !ruby/symbol address
  : 云南省丽江市玉龙县宝山石头城宝山小学
  ? !ruby/symbol contact
  : "和云飞 139-88872607"
  ? !ruby/symbol geo_id
  : 312
  ? !ruby/symbol intro
  : ~
  ? !ruby/symbol latitude
  : "27.476445715669314"
  ? !ruby/symbol longitude
  : "100.42757034301758"
  ? !ruby/symbol name
  : 丽江市玉龙县宝山小学
  ? !ruby/symbol old_id
  : 23
- 
  ? !ruby/symbol address
  : 天全县紫石乡小仁烟村
  ? !ruby/symbol contact
  : "曹禄荣 13547485414 "
  ? !ruby/symbol geo_id
  : 290
  ? !ruby/symbol intro
  : ~
  ? !ruby/symbol latitude
  : "30.0447626"
  ? !ruby/symbol longitude
  : "102.6013630"
  ? !ruby/symbol name
  : 小仁烟小学
  ? !ruby/symbol old_id
  : 26
- 
  ? !ruby/symbol address
  : 广西桂林市龙胜各族自治县和平乡金坑附中、大寨村完小
  ? !ruby/symbol contact
  : "谭连友 138-7735-1271"
  ? !ruby/symbol geo_id
  : 241
  ? !ruby/symbol intro
  : ~
  ? !ruby/symbol latitude
  : "25.801127576454444"
  ? !ruby/symbol longitude
  : "110.1544189453125"
  ? !ruby/symbol name
  : "桂林市龙胜县和平乡金坑附中 & 大寨村完小"
  ? !ruby/symbol old_id
  : 27
- 
  ? !ruby/symbol address
  : 云南省丽江市玉龙县宝山乡长丰小学
  ? !ruby/symbol contact
  : "和雪莲 139-8882-5893"
  ? !ruby/symbol geo_id
  : 312
  ? !ruby/symbol intro
  : ~
  ? !ruby/symbol latitude
  : "27.4703535"
  ? !ruby/symbol longitude
  : "100.4305313"
  ? !ruby/symbol name
  : 丽江市玉龙县长丰小学
  ? !ruby/symbol old_id
  : 29
- 
  ? !ruby/symbol address
  : 四川省攀枝花市盐边县岩口乡中心校
  ? !ruby/symbol contact
  : "马毛解 0812－8778011/13508230599"
  ? !ruby/symbol geo_id
  : 277
  ? !ruby/symbol intro
  : ~
  ? !ruby/symbol latitude
  : "27.1296821"
  ? !ruby/symbol longitude
  : "101.2674660"
  ? !ruby/symbol name
  : 岩口乡中心校
  ? !ruby/symbol old_id
  : 30
- 
  ? !ruby/symbol address
  : 云南省丽江市玉龙县奉联乡奉联村营盘二社奉联完小
  ? !ruby/symbol contact
  : "和志强 "
  ? !ruby/symbol geo_id
  : 312
  ? !ruby/symbol intro
  : ~
  ? !ruby/symbol latitude
  : "27.563069215397533"
  ? !ruby/symbol longitude
  : "100.44387817382812"
  ? !ruby/symbol name
  : 丽江市玉龙县奉联完小
  ? !ruby/symbol old_id
  : 31
- 
  ? !ruby/symbol address
  : 丹巴县聂呷乡甲居一村
  ? !ruby/symbol contact
  : "周清芝(教师） 13518443530"
  ? !ruby/symbol geo_id
  : 294
  ? !ruby/symbol intro
  : ~
  ? !ruby/symbol latitude
  : "30.9480983"
  ? !ruby/symbol longitude
  : "101.8674707"
  ? !ruby/symbol name
  : 甲居小学
  ? !ruby/symbol old_id
  : 32
- 
  ? !ruby/symbol address
  : 云南省丽江市玉龙县高寒村高寒完小
  ? !ruby/symbol contact
  : "邱多芳 137-0882-1582"
  ? !ruby/symbol geo_id
  : 312
  ? !ruby/symbol intro
  : ~
  ? !ruby/symbol latitude
  : "26.8214282"
  ? !ruby/symbol longitude
  : "100.2370048"
  ? !ruby/symbol name
  : 丽江市玉龙县高寒完小
  ? !ruby/symbol old_id
  : 33
- 
  ? !ruby/symbol address
  : 云南省丽江市玉龙县奉松乡柳青村柳青三社柳青完小
  ? !ruby/symbol contact
  : "和化军 "
  ? !ruby/symbol geo_id
  : 312
  ? !ruby/symbol intro
  : ~
  ? !ruby/symbol latitude
  : "27.57646007626269"
  ? !ruby/symbol longitude
  : "100.43838500976562"
  ? !ruby/symbol name
  : 丽江市玉龙县柳青完小
  ? !ruby/symbol old_id
  : 34
- 
  ? !ruby/symbol address
  : 云南省丽江市玉龙县宝山乡宝山中学
  ? !ruby/symbol contact
  : "树老师 13578481682"
  ? !ruby/symbol geo_id
  : 312
  ? !ruby/symbol intro
  : ~
  ? !ruby/symbol latitude
  : "27.47560807307974"
  ? !ruby/symbol longitude
  : "100.42971611022949"
  ? !ruby/symbol name
  : 宝山中学
  ? !ruby/symbol old_id
  : 35
- 
  ? !ruby/symbol address
  : 玉龙县凤科乡善美村
  ? !ruby/symbol contact
  : " "
  ? !ruby/symbol geo_id
  : 312
  ? !ruby/symbol intro
  : ~
  ? !ruby/symbol latitude
  : "26.77013508224145"
  ? !ruby/symbol longitude
  : "100.272216796875"
  ? !ruby/symbol name
  : 丽江市玉龙县凤科乡中心校善美完小
  ? !ruby/symbol old_id
  : 36
- 
  ? !ruby/symbol address
  : 云南省丽江市玉龙县拉市乡打渔自然村
  ? !ruby/symbol contact
  : "和汝刚 15008791127"
  ? !ruby/symbol geo_id
  : 312
  ? !ruby/symbol intro
  : ~
  ? !ruby/symbol latitude
  : "26.88267471344828"
  ? !ruby/symbol longitude
  : "100.11703491210938"
  ? !ruby/symbol name
  : 新荣完小
  ? !ruby/symbol old_id
  : 40
- 
  ? !ruby/symbol address
  : 云南省楚雄州大姚县六苴镇者纳么小学
  ? !ruby/symbol contact
  : "王晓文 13529703382"
  ? !ruby/symbol geo_id
  : 318
  ? !ruby/symbol intro
  : ~
  ? !ruby/symbol latitude
  : "25.9041655"
  ? !ruby/symbol longitude
  : "101.3541819"
  ? !ruby/symbol name
  : 楚雄州大姚县六苴镇者纳么小学
  ? !ruby/symbol old_id
  : 41
- 
  ? !ruby/symbol address
  : 云南省丽江市宁蒗县永宁乡拖支完小
  ? !ruby/symbol contact
  : "和雨 15987951190"
  ? !ruby/symbol geo_id
  : 312
  ? !ruby/symbol intro
  : ~
  ? !ruby/symbol latitude
  : "27.8419197"
  ? !ruby/symbol longitude
  : "100.6950900"
  ? !ruby/symbol name
  : 丽江市宁蒗县永宁乡拖支完小
  ? !ruby/symbol old_id
  : 42
- 
  ? !ruby/symbol address
  : 云南省丽江市宁蒗彝族自治县拉伯乡拉伯村委会拉卡西村小组
  ? !ruby/symbol contact
  : "和文忠 13508886998"
  ? !ruby/symbol geo_id
  : 312
  ? !ruby/symbol intro
  : ~
  ? !ruby/symbol latitude
  : "27.7440896"
  ? !ruby/symbol longitude
  : "100.4483431"
  ? !ruby/symbol name
  : 丽江市宁蒗彝族自治县拉伯乡拉伯完小
  ? !ruby/symbol old_id
  : 44
- 
  ? !ruby/symbol address
  : 德钦县云岭乡西当村
  ? !ruby/symbol contact
  : "吾堆  13988716039 cilinongbu_617@yahoo.com.cn"
  ? !ruby/symbol geo_id
  : 322
  ? !ruby/symbol intro
  : 美丽的梅里雪山脚下有很多村子，而西当小学是这里的唯一的一所有六个年级的完全小学，所以别的村子的孩子也会在这里上高年级。学校的历史很悠久，是建国初期就建成的，学校的老师人都很好，很热情。
  ? !ruby/symbol latitude
  : "28.43487403044289"
  ? !ruby/symbol longitude
  : "98.82953703403473"
  ? !ruby/symbol name
  : 西当寄宿制完小
  ? !ruby/symbol old_id
  : 45
- 
  ? !ruby/symbol address
  : 荔波县洞塘乡木朝小学
  ? !ruby/symbol contact
  : "姚必渊 13638005308"
  ? !ruby/symbol geo_id
  : 305
  ? !ruby/symbol intro
  : ~
  ? !ruby/symbol latitude
  : "25.2878129"
  ? !ruby/symbol longitude
  : "108.0157595"
  ? !ruby/symbol name
  : 木朝小学
  ? !ruby/symbol old_id
  : 46
- 
  ? !ruby/symbol address
  : 龙胜县和平乡小寨希望小学
  ? !ruby/symbol contact
  : "潘建恩 13077643402   "
  ? !ruby/symbol geo_id
  : 241
  ? !ruby/symbol intro
  : ~
  ? !ruby/symbol latitude
  : "25.821217176813217"
  ? !ruby/symbol longitude
  : "110.17141342163086"
  ? !ruby/symbol name
  : 小寨希望小学
  ? !ruby/symbol old_id
  : 47
- 
  ? !ruby/symbol address
  : 横县平朗乡稔歌小学
  ? !ruby/symbol contact
  : "刘灿民 13878797346 "
  ? !ruby/symbol geo_id
  : 239
  ? !ruby/symbol intro
  : ~
  ? !ruby/symbol latitude
  : "22.6758158"
  ? !ruby/symbol longitude
  : "108.9010324"
  ? !ruby/symbol name
  : 稔歌小学
  ? !ruby/symbol old_id
  : 49
- 
  ? !ruby/symbol address
  : 荔波县洞塘乡洞塘小学
  ? !ruby/symbol contact
  : "姚必稳 13368648181"
  ? !ruby/symbol geo_id
  : 305
  ? !ruby/symbol intro
  : ~
  ? !ruby/symbol latitude
  : "25.2878129"
  ? !ruby/symbol longitude
  : "108.0157595"
  ? !ruby/symbol name
  : 洞塘小学
  ? !ruby/symbol old_id
  : 50
- 
  ? !ruby/symbol address
  : 四川省盐源县泸沽湖镇多舍村
  ? !ruby/symbol contact
  : "喻永平 13882467471"
  ? !ruby/symbol geo_id
  : 295
  ? !ruby/symbol intro
  : ~
  ? !ruby/symbol latitude
  : "27.724164411948657"
  ? !ruby/symbol longitude
  : "100.86646556854248"
  ? !ruby/symbol name
  : 泸沽湖小学
  ? !ruby/symbol old_id
  : 52
- 
  ? !ruby/symbol address
  : 横县新福镇平塘村委江口街平塘村委小学
  ? !ruby/symbol contact
  : "谢鸿权 13457047005 "
  ? !ruby/symbol geo_id
  : 239
  ? !ruby/symbol intro
  : ~
  ? !ruby/symbol latitude
  : "22.5274919"
  ? !ruby/symbol longitude
  : "108.9556953"
  ? !ruby/symbol name
  : 平塘村委小学
  ? !ruby/symbol old_id
  : 53
- 
  ? !ruby/symbol address
  : 荔波县洞塘乡洞腊小学
  ? !ruby/symbol contact
  : "代有龙 13379624932"
  ? !ruby/symbol geo_id
  : 305
  ? !ruby/symbol intro
  : ~
  ? !ruby/symbol latitude
  : "25.288162873186213"
  ? !ruby/symbol longitude
  : "108.01431655883789"
  ? !ruby/symbol name
  : 洞腊小学
  ? !ruby/symbol old_id
  : 54
- 
  ? !ruby/symbol address
  : 盐源县大河乡大园子村
  ? !ruby/symbol contact
  : "朱正华 13518428291"
  ? !ruby/symbol geo_id
  : 295
  ? !ruby/symbol intro
  : ~
  ? !ruby/symbol latitude
  : "27.5949764"
  ? !ruby/symbol longitude
  : "101.5583429"
  ? !ruby/symbol name
  : 大河乡小学
  ? !ruby/symbol old_id
  : 61
- 
  ? !ruby/symbol address
  : 荔波县永康水族乡永康小学
  ? !ruby/symbol contact
  : "覃祖顺 13985765310"
  ? !ruby/symbol geo_id
  : 305
  ? !ruby/symbol intro
  : ~
  ? !ruby/symbol latitude
  : "25.3520444"
  ? !ruby/symbol longitude
  : "107.9497042"
  ? !ruby/symbol name
  : 永康小学
  ? !ruby/symbol old_id
  : 62
- 
  ? !ruby/symbol address
  : 盐源县民族中学
  ? !ruby/symbol contact
  : "王校长 0834-6361972"
  ? !ruby/symbol geo_id
  : 295
  ? !ruby/symbol intro
  : ~
  ? !ruby/symbol latitude
  : "27.4226428"
  ? !ruby/symbol longitude
  : "101.5091872"
  ? !ruby/symbol name
  : 盐源县民族中学
  ? !ruby/symbol old_id
  : 64
- 
  ? !ruby/symbol address
  : 盐源县下海乡清水村
  ? !ruby/symbol contact
  : "赵庆友 13981569380"
  ? !ruby/symbol geo_id
  : 295
  ? !ruby/symbol intro
  : ~
  ? !ruby/symbol latitude
  : "27.4818476"
  ? !ruby/symbol longitude
  : "101.4101687"
  ? !ruby/symbol name
  : 清水村小学
  ? !ruby/symbol old_id
  : 66
- 
  ? !ruby/symbol address
  : 云南省红河州（个旧）元阳市县牛角寨乡中心小学
  ? !ruby/symbol contact
  : " "
  ? !ruby/symbol geo_id
  : 316
  ? !ruby/symbol intro
  : ~
  ? !ruby/symbol latitude
  : "23.3591210"
  ? !ruby/symbol longitude
  : "103.1600340"
  ? !ruby/symbol name
  : 红河州（个旧）元阳县中心小学
  ? !ruby/symbol old_id
  : 67
- 
  ? !ruby/symbol address
  : 融水县白云乡邦阳村上邦屯
  ? !ruby/symbol contact
  : "杨继强 13597252500"
  ? !ruby/symbol geo_id
  : 240
  ? !ruby/symbol intro
  : ~
  ? !ruby/symbol latitude
  : "25.5194724"
  ? !ruby/symbol longitude
  : "109.3029470"
  ? !ruby/symbol name
  : 上邦小学
  ? !ruby/symbol old_id
  : 69
- 
  ? !ruby/symbol address
  : 凯里市第六中学
  ? !ruby/symbol contact
  : "王海全 13985828348 "
  ? !ruby/symbol geo_id
  : 304
  ? !ruby/symbol intro
  : ~
  ? !ruby/symbol latitude
  : "26.5888844"
  ? !ruby/symbol longitude
  : "107.9771118"
  ? !ruby/symbol name
  : 凯里市第六中学
  ? !ruby/symbol old_id
  : 70
- 
  ? !ruby/symbol address
  : 四川甘孜藏族自治州
  ? !ruby/symbol contact
  : " "
  ? !ruby/symbol geo_id
  : 294
  ? !ruby/symbol intro
  : ~
  ? !ruby/symbol latitude
  : "30.1413603"
  ? !ruby/symbol longitude
  : "101.8657064"
  ? !ruby/symbol name
  : 甘孜藏族自治州西藏江南慈善学校
  ? !ruby/symbol old_id
  : 71
- 
  ? !ruby/symbol address
  : 元阳县牛角寨乡果期村委会七座村
  ? !ruby/symbol contact
  : "李绍洪村长 0873-5761015"
  ? !ruby/symbol geo_id
  : 316
  ? !ruby/symbol intro
  : ~
  ? !ruby/symbol latitude
  : "23.3591210"
  ? !ruby/symbol longitude
  : "103.1600340"
  ? !ruby/symbol name
  : 七座小学
  ? !ruby/symbol old_id
  : 72
- 
  ? !ruby/symbol address
  : 东川区红土地花沟小学
  ? !ruby/symbol contact
  : "毛燕 13187897186"
  ? !ruby/symbol geo_id
  : 307
  ? !ruby/symbol intro
  : ~
  ? !ruby/symbol latitude
  : "25.01281756659558"
  ? !ruby/symbol longitude
  : "102.8265380859375"
  ? !ruby/symbol name
  : 红土地花沟小学
  ? !ruby/symbol old_id
  : 73
- 
  ? !ruby/symbol address
  : 四川省甘孜州巴塘县一完小
  ? !ruby/symbol contact
  : "戴老师 13568289611"
  ? !ruby/symbol geo_id
  : 294
  ? !ruby/symbol intro
  : ~
  ? !ruby/symbol latitude
  : "30.0045889"
  ? !ruby/symbol longitude
  : "99.1077411"
  ? !ruby/symbol name
  : 甘孜州巴塘县一完小
  ? !ruby/symbol old_id
  : 74
- 
  ? !ruby/symbol address
  : 龙胜县和平乡白水小学
  ? !ruby/symbol contact
  : "韦顶院 13457315190"
  ? !ruby/symbol geo_id
  : 241
  ? !ruby/symbol intro
  : ~
  ? !ruby/symbol latitude
  : "25.73032324452904"
  ? !ruby/symbol longitude
  : "110.05279541015625"
  ? !ruby/symbol name
  : 白水小学
  ? !ruby/symbol old_id
  : 75
- 
  ? !ruby/symbol address
  : 元阳市县小新街乡旧城小学
  ? !ruby/symbol contact
  : "杨克刚 0873 – 5971057"
  ? !ruby/symbol geo_id
  : 316
  ? !ruby/symbol intro
  : ~
  ? !ruby/symbol latitude
  : "23.2199380"
  ? !ruby/symbol longitude
  : "102.8352230"
  ? !ruby/symbol name
  : 旧城小学
  ? !ruby/symbol old_id
  : 77
- 
  ? !ruby/symbol address
  : 融水苗族自治县滚贝乡尧佐村小学
  ? !ruby/symbol contact
  : "伍耀辉 13878231723"
  ? !ruby/symbol geo_id
  : 240
  ? !ruby/symbol intro
  : ~
  ? !ruby/symbol latitude
  : "25.3969467"
  ? !ruby/symbol longitude
  : "108.8556495"
  ? !ruby/symbol name
  : 尧佐村小学
  ? !ruby/symbol old_id
  : 78
- 
  ? !ruby/symbol address
  : 马边县张坝中学
  ? !ruby/symbol contact
  : "夏复友 0833 4501071"
  ? !ruby/symbol geo_id
  : 284
  ? !ruby/symbol intro
  : ~
  ? !ruby/symbol latitude
  : "28.6854488"
  ? !ruby/symbol longitude
  : "103.6762512"
  ? !ruby/symbol name
  : 张坝中学
  ? !ruby/symbol old_id
  : 79
- 
  ? !ruby/symbol address
  : 雷山县西江镇白碧村
  ? !ruby/symbol contact
  : "文健 13595559244"
  ? !ruby/symbol geo_id
  : 304
  ? !ruby/symbol intro
  : ~
  ? !ruby/symbol latitude
  : "26.454590754454784"
  ? !ruby/symbol longitude
  : "108.15713882446289"
  ? !ruby/symbol name
  : 白碧小学
  ? !ruby/symbol old_id
  : 80
- 
  ? !ruby/symbol address
  : 阿坝县给唐东街1号
  ? !ruby/symbol contact
  : "确旦 13882492224 、0837 2482534（家）"
  ? !ruby/symbol geo_id
  : 293
  ? !ruby/symbol intro
  : ~
  ? !ruby/symbol latitude
  : "32.9024612"
  ? !ruby/symbol longitude
  : "101.7066514"
  ? !ruby/symbol name
  : 阿坝县藏文中学
  ? !ruby/symbol old_id
  : 86
- 
  ? !ruby/symbol address
  : 广西桂林龙胜县和平乡江柳村完小
  ? !ruby/symbol contact
  : "潘全安 130-7764-6205"
  ? !ruby/symbol geo_id
  : 241
  ? !ruby/symbol intro
  : ~
  ? !ruby/symbol latitude
  : "25.795254588347436"
  ? !ruby/symbol longitude
  : "110.20051002502441"
  ? !ruby/symbol name
  : 江柳村完小
  ? !ruby/symbol old_id
  : 88
- 
  ? !ruby/symbol address
  : 紫云县水塘镇格井村
  ? !ruby/symbol contact
  : "王启志 13595357799"
  ? !ruby/symbol geo_id
  : 300
  ? !ruby/symbol intro
  : ~
  ? !ruby/symbol latitude
  : "25.6199532"
  ? !ruby/symbol longitude
  : "106.2243979"
  ? !ruby/symbol name
  : 格井小学
  ? !ruby/symbol old_id
  : 90
- 
  ? !ruby/symbol address
  : "安徽省六安市叶集二中	"
  ? !ruby/symbol contact
  : "江崇艳 13014020121"
  ? !ruby/symbol geo_id
  : 123
  ? !ruby/symbol intro
  : ~
  ? !ruby/symbol latitude
  : "31.7489891"
  ? !ruby/symbol longitude
  : "116.4958906"
  ? !ruby/symbol name
  : 六安市叶集二中
  ? !ruby/symbol old_id
  : 91
- 
  ? !ruby/symbol address
  : 淇县北阳镇大马庄村
  ? !ruby/symbol contact
  : "张发志 0392-7771523"
  ? !ruby/symbol geo_id
  : 170
  ? !ruby/symbol intro
  : ~
  ? !ruby/symbol latitude
  : "35.5824220"
  ? !ruby/symbol longitude
  : "114.1527900"
  ? !ruby/symbol name
  : 大马庄村小学
  ? !ruby/symbol old_id
  : 92
- 
  ? !ruby/symbol address
  : 四川省甘孜州理塘县下木拉明珠佛学院
  ? !ruby/symbol contact
  : "斯朗卓嘎 无"
  ? !ruby/symbol geo_id
  : 294
  ? !ruby/symbol intro
  : ~
  ? !ruby/symbol latitude
  : "29.9960490"
  ? !ruby/symbol longitude
  : "100.2698180"
  ? !ruby/symbol name
  : 甘孜州理塘县下木拉明珠佛学院
  ? !ruby/symbol old_id
  : 93
- 
  ? !ruby/symbol address
  : 永定县湖坑镇洪川小学
  ? !ruby/symbol contact
  : "曾新涛 13950809151"
  ? !ruby/symbol geo_id
  : 132
  ? !ruby/symbol intro
  : ~
  ? !ruby/symbol latitude
  : "24.6470963"
  ? !ruby/symbol longitude
  : "116.9517142"
  ? !ruby/symbol name
  : "洪川小学 "
  ? !ruby/symbol old_id
  : 94
- 
  ? !ruby/symbol address
  : "永定县 堂堡乡（镇） 香溪村 "
  ? !ruby/symbol contact
  : "谢辉奎 13950855825"
  ? !ruby/symbol geo_id
  : 132
  ? !ruby/symbol intro
  : ~
  ? !ruby/symbol latitude
  : "24.8662127"
  ? !ruby/symbol longitude
  : "116.8094537"
  ? !ruby/symbol name
  : 香溪小学
  ? !ruby/symbol old_id
  : 95
- 
  ? !ruby/symbol address
  : 南靖县书洋镇塔下村
  ? !ruby/symbol contact
  : "张延民 13860863561   住家0596-7855285"
  ? !ruby/symbol geo_id
  : 130
  ? !ruby/symbol intro
  : ~
  ? !ruby/symbol latitude
  : "24.618773982883813"
  ? !ruby/symbol longitude
  : "117.04988479614258"
  ? !ruby/symbol name
  : "塔下小学 "
  ? !ruby/symbol old_id
  : 96
- 
  ? !ruby/symbol address
  : 碌曲县郎木寺格尔底寺纳摩寺小学
  ? !ruby/symbol contact
  : "旦真 13893935996"
  ? !ruby/symbol geo_id
  : 356
  ? !ruby/symbol intro
  : ~
  ? !ruby/symbol latitude
  : "34.5904175"
  ? !ruby/symbol longitude
  : "102.4889231"
  ? !ruby/symbol name
  : 纳摩寺小学
  ? !ruby/symbol old_id
  : 97
- 
  ? !ruby/symbol address
  : 甘肃省甘南州碌曲县达仓郎木赛赤小学
  ? !ruby/symbol contact
  : "尕藏达尔吉 0941-3380985"
  ? !ruby/symbol geo_id
  : 356
  ? !ruby/symbol intro
  : ~
  ? !ruby/symbol latitude
  : "34.5904175"
  ? !ruby/symbol longitude
  : "102.4889231"
  ? !ruby/symbol name
  : 甘南州碌曲县达仓郎木赛赤小学
  ? !ruby/symbol old_id
  : 100
- 
  ? !ruby/symbol address
  : 夏河县人民西街69号
  ? !ruby/symbol contact
  : "加代 13893926696  0941-7121734"
  ? !ruby/symbol geo_id
  : 356
  ? !ruby/symbol intro
  : ~
  ? !ruby/symbol latitude
  : "35.2022934"
  ? !ruby/symbol longitude
  : "102.5061798"
  ? !ruby/symbol name
  : 拉卜楞藏民小学
  ? !ruby/symbol old_id
  : 101
- 
  ? !ruby/symbol address
  : 荔波县洞塘乡尧所小学
  ? !ruby/symbol contact
  : "王泰权 13595453821"
  ? !ruby/symbol geo_id
  : 305
  ? !ruby/symbol intro
  : ~
  ? !ruby/symbol latitude
  : "25.2878129"
  ? !ruby/symbol longitude
  : "108.0157595"
  ? !ruby/symbol name
  : 黔南州荔波县洞塘乡尧所小学
  ? !ruby/symbol old_id
  : 103
- 
  ? !ruby/symbol address
  : 甘肃省甘南州夏河县人民西街
  ? !ruby/symbol contact
  : "李强 0941-3385020"
  ? !ruby/symbol geo_id
  : 356
  ? !ruby/symbol intro
  : ~
  ? !ruby/symbol latitude
  : "35.2025595"
  ? !ruby/symbol longitude
  : "102.5217319"
  ? !ruby/symbol name
  : 甘南州夏河县中学
  ? !ruby/symbol old_id
  : 104
- 
  ? !ruby/symbol address
  : 东源县涧头镇
  ? !ruby/symbol contact
  : "朱老师 13553234242"
  ? !ruby/symbol geo_id
  : 230
  ? !ruby/symbol intro
  : ~
  ? !ruby/symbol latitude
  : "24.0525342"
  ? !ruby/symbol longitude
  : "114.7067748"
  ? !ruby/symbol name
  : 乐平学校
  ? !ruby/symbol old_id
  : 105
- 
  ? !ruby/symbol address
  : 连平县陂头镇官岭管理区
  ? !ruby/symbol contact
  : "谢卫立 0762-4971265"
  ? !ruby/symbol geo_id
  : 230
  ? !ruby/symbol intro
  : ~
  ? !ruby/symbol latitude
  : "24.39275562429113"
  ? !ruby/symbol longitude
  : "114.31343078613281"
  ? !ruby/symbol name
  : 三坑希望小学
  ? !ruby/symbol old_id
  : 106
- 
  ? !ruby/symbol address
  : 辉县南寨中学
  ? !ruby/symbol contact
  : "牛新卫 未知"
  ? !ruby/symbol geo_id
  : 171
  ? !ruby/symbol intro
  : ~
  ? !ruby/symbol latitude
  : "35.3033178"
  ? !ruby/symbol longitude
  : "113.9269240"
  ? !ruby/symbol name
  : 南寨中学
  ? !ruby/symbol old_id
  : 107
- 
  ? !ruby/symbol address
  : 辉县市上八里镇回龙村
  ? !ruby/symbol contact
  : "董勉富 13569445575"
  ? !ruby/symbol geo_id
  : 171
  ? !ruby/symbol intro
  : ~
  ? !ruby/symbol latitude
  : "35.5388835"
  ? !ruby/symbol longitude
  : "113.6096875"
  ? !ruby/symbol name
  : 新乡市辉县上八里镇回龙小学
  ? !ruby/symbol old_id
  : 108
- 
  ? !ruby/symbol address
  : 河南禹州市苌庄乡玩南村
  ? !ruby/symbol contact
  : "强占奇 13938909828"
  ? !ruby/symbol geo_id
  : 181
  ? !ruby/symbol intro
  : ~
  ? !ruby/symbol latitude
  : "34.3230116"
  ? !ruby/symbol longitude
  : "113.3313866"
  ? !ruby/symbol name
  : 许昌市禹州市苌庄乡玩南村第二初级中学
  ? !ruby/symbol old_id
  : 109
- 
  ? !ruby/symbol address
  : 禹州市苌庄苌庄村
  ? !ruby/symbol contact
  : "姚保恒 13503742569  "
  ? !ruby/symbol geo_id
  : 181
  ? !ruby/symbol intro
  : ~
  ? !ruby/symbol latitude
  : "34.0221555"
  ? !ruby/symbol longitude
  : "113.8322425"
  ? !ruby/symbol name
  : 苌庄乡第二初级中学
  ? !ruby/symbol old_id
  : 110
- 
  ? !ruby/symbol address
  : 湖北省巴东县水布垭镇长岭中学
  ? !ruby/symbol contact
  : "邓正东 0718-4852127"
  ? !ruby/symbol geo_id
  : 196
  ? !ruby/symbol intro
  : ~
  ? !ruby/symbol latitude
  : "30.4485413"
  ? !ruby/symbol longitude
  : "110.3352650"
  ? !ruby/symbol name
  : 湖北省巴东县水布垭镇长岭中学
  ? !ruby/symbol old_id
  : 111
- 
  ? !ruby/symbol address
  : 凤凰县腊尔山镇山斗小学
  ? !ruby/symbol contact
  : "田美连 13174238334"
  ? !ruby/symbol geo_id
  : 202
  ? !ruby/symbol intro
  : ~
  ? !ruby/symbol latitude
  : "28.081673729044283"
  ? !ruby/symbol longitude
  : "109.3853759765625"
  ? !ruby/symbol name
  : 山斗小学
  ? !ruby/symbol old_id
  : 112
- 
  ? !ruby/symbol address
  : 云南省丽江市玉龙纳西族自治县拉市乡海南行政村普若小学
  ? !ruby/symbol contact
  : "金占云  赵洪文 13769037585 13578382109"
  ? !ruby/symbol geo_id
  : 312
  ? !ruby/symbol intro
  : ~
  ? !ruby/symbol latitude
  : "26.8484489"
  ? !ruby/symbol longitude
  : "100.1479714"
  ? !ruby/symbol name
  : 丽江市玉龙纳西族自治县拉市乡海南行政村普若小学
  ? !ruby/symbol old_id
  : 113
- 
  ? !ruby/symbol address
  : 凤凰县山江镇冬就村
  ? !ruby/symbol contact
  : "顺顺 13574316110"
  ? !ruby/symbol geo_id
  : 215
  ? !ruby/symbol intro
  : ~
  ? !ruby/symbol latitude
  : "28.05259082333986"
  ? !ruby/symbol longitude
  : "109.390869140625"
  ? !ruby/symbol name
  : 冬就小学
  ? !ruby/symbol old_id
  : 114
- 
  ? !ruby/symbol address
  : 花垣县补抽中心小学
  ? !ruby/symbol contact
  : "龙正权 13574368344"
  ? !ruby/symbol geo_id
  : 215
  ? !ruby/symbol intro
  : ~
  ? !ruby/symbol latitude
  : "28.5720286"
  ? !ruby/symbol longitude
  : "109.4820750"
  ? !ruby/symbol name
  : 补抽中心小学
  ? !ruby/symbol old_id
  : 115
- 
  ? !ruby/symbol address
  : 安徽省黄山市歙县王村镇王村村中心学校
  ? !ruby/symbol contact
  : "叶健 13305599651"
  ? !ruby/symbol geo_id
  : 115
  ? !ruby/symbol intro
  : ~
  ? !ruby/symbol latitude
  : "29.7533494"
  ? !ruby/symbol longitude
  : "118.4059666"
  ? !ruby/symbol name
  : 黄山市歙县王村中心学校
  ? !ruby/symbol old_id
  : 116
- 
  ? !ruby/symbol address
  : 乐安县流坑小学
  ? !ruby/symbol contact
  : "董建安 13870432318"
  ? !ruby/symbol geo_id
  : 144
  ? !ruby/symbol intro
  : ~
  ? !ruby/symbol latitude
  : "27.4204429"
  ? !ruby/symbol longitude
  : "115.8378911"
  ? !ruby/symbol name
  : 流坑小学
  ? !ruby/symbol old_id
  : 118
- 
  ? !ruby/symbol address
  : 叶集区三元沾塘小学
  ? !ruby/symbol contact
  : "陈亮 未知"
  ? !ruby/symbol geo_id
  : 123
  ? !ruby/symbol intro
  : ~
  ? !ruby/symbol latitude
  : "31.7489891"
  ? !ruby/symbol longitude
  : "116.4958906"
  ? !ruby/symbol name
  : 沾塘小学
  ? !ruby/symbol old_id
  : 119
- 
  ? !ruby/symbol address
  : 卢氏县狮子坪中心小学（狮子坪街）
  ? !ruby/symbol contact
  : "姚保恒 13939887396 "
  ? !ruby/symbol geo_id
  : 174
  ? !ruby/symbol intro
  : ~
  ? !ruby/symbol latitude
  : "34.0541972"
  ? !ruby/symbol longitude
  : "111.0479057"
  ? !ruby/symbol name
  : 狮子坪中心小学
  ? !ruby/symbol old_id
  : 120
- 
  ? !ruby/symbol address
  : 卢氏县瓦块沟中心小学（瓦块沟街）
  ? !ruby/symbol contact
  : "姚保恒 13839844829 "
  ? !ruby/symbol geo_id
  : 174
  ? !ruby/symbol intro
  : ~
  ? !ruby/symbol latitude
  : "34.0541972"
  ? !ruby/symbol longitude
  : "111.0479057"
  ? !ruby/symbol name
  : 瓦块沟中心小学
  ? !ruby/symbol old_id
  : 121
- 
  ? !ruby/symbol address
  : 卢氏县文峪乡南窑村
  ? !ruby/symbol contact
  : "陈占友 13839879838"
  ? !ruby/symbol geo_id
  : 174
  ? !ruby/symbol intro
  : ~
  ? !ruby/symbol latitude
  : "34.0496278"
  ? !ruby/symbol longitude
  : "111.0681975"
  ? !ruby/symbol name
  : 南窑中心小学
  ? !ruby/symbol old_id
  : 122
- 
  ? !ruby/symbol address
  : 卢氏县文峪乡南窑村
  ? !ruby/symbol contact
  : "王章 13803987283"
  ? !ruby/symbol geo_id
  : 174
  ? !ruby/symbol intro
  : ~
  ? !ruby/symbol latitude
  : "34.0496278"
  ? !ruby/symbol longitude
  : "111.0681975"
  ? !ruby/symbol name
  : 双槐树心小学
  ? !ruby/symbol old_id
  : 123
- 
  ? !ruby/symbol address
  : 荔波县永康水族乡尧古小学
  ? !ruby/symbol contact
  : "张雁权 13985084508 0854 -3613101"
  ? !ruby/symbol geo_id
  : 305
  ? !ruby/symbol intro
  : ~
  ? !ruby/symbol latitude
  : "25.3520444"
  ? !ruby/symbol longitude
  : "107.9497042"
  ? !ruby/symbol name
  : 尧古小学
  ? !ruby/symbol old_id
  : 124
- 
  ? !ruby/symbol address
  : 额济纳旗县
  ? !ruby/symbol contact
  : "窦万超 0483-6521328 （家）13804735615"
  ? !ruby/symbol geo_id
  : 38
  ? !ruby/symbol intro
  : ~
  ? !ruby/symbol latitude
  : "41.269549502842565"
  ? !ruby/symbol longitude
  : "101.282958984375"
  ? !ruby/symbol name
  : 额济纳旗第一完全小学
  ? !ruby/symbol old_id
  : 125
- 
  ? !ruby/symbol address
  : 青海省刚察县沙柳河乡永丰村
  ? !ruby/symbol contact
  : "李秀 "
  ? !ruby/symbol geo_id
  : 360
  ? !ruby/symbol intro
  : ~
  ? !ruby/symbol latitude
  : "37.2756016"
  ? !ruby/symbol longitude
  : "100.1648604"
  ? !ruby/symbol name
  : 海北州刚察县沙柳河民族寄宿小学
  ? !ruby/symbol old_id
  : 126
- 
  ? !ruby/symbol address
  : 共和县环湖民族中学
  ? !ruby/symbol contact
  : "马勇 13997440103"
  ? !ruby/symbol geo_id
  : 362
  ? !ruby/symbol intro
  : ~
  ? !ruby/symbol latitude
  : "36.2841070"
  ? !ruby/symbol longitude
  : "100.6200310"
  ? !ruby/symbol name
  : 环湖民族中学
  ? !ruby/symbol old_id
  : 127
- 
  ? !ruby/symbol address
  : 玉树州古镇新建路220号
  ? !ruby/symbol contact
  : "尼玛仁增 13909766988"
  ? !ruby/symbol geo_id
  : 364
  ? !ruby/symbol intro
  : ~
  ? !ruby/symbol latitude
  : "33.3288966"
  ? !ruby/symbol longitude
  : "96.8181117"
  ? !ruby/symbol name
  : 玉树州玉树县藏医孤儿学校
  ? !ruby/symbol old_id
  : 128
- 
  ? !ruby/symbol address
  : 玉树县结古镇结曲南路344号
  ? !ruby/symbol contact
  : "田江山 0976-8823160"
  ? !ruby/symbol geo_id
  : 364
  ? !ruby/symbol intro
  : ~
  ? !ruby/symbol latitude
  : "33.00268923420742"
  ? !ruby/symbol longitude
  : "96.9838285446167"
  ? !ruby/symbol name
  : 玉树县第二民族中学
  ? !ruby/symbol old_id
  : 129
- 
  ? !ruby/symbol address
  : 玉树县胜利路双拥巷2号
  ? !ruby/symbol contact
  : "龚老师 18997360998"
  ? !ruby/symbol geo_id
  : 364
  ? !ruby/symbol intro
  : ""
  ? !ruby/symbol latitude
  : "32.99016356798383"
  ? !ruby/symbol longitude
  : "97.0087194442749"
  ? !ruby/symbol name
  : 玉树县第二完全小学
  ? !ruby/symbol old_id
  : 130
- 
  ? !ruby/symbol address
  : 玉树县结古镇扎曲北路111号
  ? !ruby/symbol contact
  : "陈宾 0976-8826802"
  ? !ruby/symbol geo_id
  : 364
  ? !ruby/symbol intro
  : ~
  ? !ruby/symbol latitude
  : "33.00168148775868"
  ? !ruby/symbol longitude
  : "96.98007881641388"
  ? !ruby/symbol name
  : 玉树县第三小学
  ? !ruby/symbol old_id
  : 131
- 
  ? !ruby/symbol address
  : 玉树县结古镇双拥路12号
  ? !ruby/symbol contact
  : "白玛昂江 0976-8646506"
  ? !ruby/symbol geo_id
  : 364
  ? !ruby/symbol intro
  : ~
  ? !ruby/symbol latitude
  : "32.98811178078322"
  ? !ruby/symbol longitude
  : "97.00974941253662"
  ? !ruby/symbol name
  : 玉树县第一民族中学
  ? !ruby/symbol old_id
  : 132
- 
  ? !ruby/symbol address
  : 玉树县结古镇胜利路40号
  ? !ruby/symbol contact
  : "马小洪 0976-8634409"
  ? !ruby/symbol geo_id
  : 364
  ? !ruby/symbol intro
  : ~
  ? !ruby/symbol latitude
  : "32.999126079089336"
  ? !ruby/symbol longitude
  : "97.010178565979"
  ? !ruby/symbol name
  : 玉树县第一完全小学
  ? !ruby/symbol old_id
  : 133
- 
  ? !ruby/symbol address
  : 玉树县新寨路9号
  ? !ruby/symbol contact
  : "索南求吉 0976-8648408"
  ? !ruby/symbol geo_id
  : 364
  ? !ruby/symbol intro
  : ~
  ? !ruby/symbol latitude
  : "33.0183078"
  ? !ruby/symbol longitude
  : "97.0129681"
  ? !ruby/symbol name
  : 玉树县结古镇九年制寄宿学校
  ? !ruby/symbol old_id
  : 134
- 
  ? !ruby/symbol address
  : 茶陵县舲舫中心小学
  ? !ruby/symbol contact
  : "蒋军生 13787812150"
  ? !ruby/symbol geo_id
  : 203
  ? !ruby/symbol intro
  : ~
  ? !ruby/symbol latitude
  : "26.8122841"
  ? !ruby/symbol longitude
  : "113.6176658"
  ? !ruby/symbol name
  : 舲舫中心小学
  ? !ruby/symbol old_id
  : 135
- 
  ? !ruby/symbol address
  : 四川省甘孜县甲登慈善免费学校
  ? !ruby/symbol contact
  : "白玛曲批 13568290407"
  ? !ruby/symbol geo_id
  : 294
  ? !ruby/symbol intro
  : 这是一所由甲登仁布切和那么多人的爱心共同托起的学校。这儿有一批几乎是无偿地却又心无旁骛地支撑着这所学校，在一条艰辛的路上默默地坚守着自己的使命与责任的老师。这儿有一群无疑十分幸运地为仁布切的慈悲所泽被、为众多人的爱心所关注的贫困而又富足的孩子。
  ? !ruby/symbol latitude
  : "30.1413603"
  ? !ruby/symbol longitude
  : "101.8657064"
  ? !ruby/symbol name
  : 甘孜州甘孜县甲登慈善学校
  ? !ruby/symbol old_id
  : 138
- 
  ? !ruby/symbol address
  : 广西桂林市阳朔县高田镇乐响村委乐响小学
  ? !ruby/symbol contact
  : "陆老师 13737398202 "
  ? !ruby/symbol geo_id
  : 241
  ? !ruby/symbol intro
  : ~
  ? !ruby/symbol latitude
  : "24.7101519"
  ? !ruby/symbol longitude
  : "110.4643052"
  ? !ruby/symbol name
  : 乐响小学
  ? !ruby/symbol old_id
  : 139
- 
  ? !ruby/symbol address
  : 田独镇落笔村
  ? !ruby/symbol contact
  : "吴校长 13807503228"
  ? !ruby/symbol geo_id
  : 255
  ? !ruby/symbol intro
  : ~
  ? !ruby/symbol latitude
  : "18.2926986"
  ? !ruby/symbol longitude
  : "109.6142311"
  ? !ruby/symbol name
  : 落笔小学
  ? !ruby/symbol old_id
  : 140
- 
  ? !ruby/symbol address
  : 荔波县洞塘乡木朝小学
  ? !ruby/symbol contact
  : "张雁权 13985084508"
  ? !ruby/symbol geo_id
  : 305
  ? !ruby/symbol intro
  : ~
  ? !ruby/symbol latitude
  : "25.2878129"
  ? !ruby/symbol longitude
  : "108.0157595"
  ? !ruby/symbol name
  : 木朝小学
  ? !ruby/symbol old_id
  : 141
- 
  ? !ruby/symbol address
  : 天涯镇农塔村
  ? !ruby/symbol contact
  : "陈世川 13158963157"
  ? !ruby/symbol geo_id
  : 255
  ? !ruby/symbol intro
  : ~
  ? !ruby/symbol latitude
  : "18.3097441"
  ? !ruby/symbol longitude
  : "109.3133520"
  ? !ruby/symbol name
  : 农塔希望小学
  ? !ruby/symbol old_id
  : 142
- 
  ? !ruby/symbol address
  : 云南省迪庆藏族自治州德钦县奔子栏镇书松完小
  ? !ruby/symbol contact
  : "尼玛此里(教导主任) 139-8877-1758"
  ? !ruby/symbol geo_id
  : 322
  ? !ruby/symbol intro
  : ~
  ? !ruby/symbol latitude
  : "28.2419558"
  ? !ruby/symbol longitude
  : "99.2999732"
  ? !ruby/symbol name
  : 迪庆藏族自治州德钦县奔子栏镇书松完小
  ? !ruby/symbol old_id
  : 143
- 
  ? !ruby/symbol address
  : 荔波县水尧乡政府
  ? !ruby/symbol contact
  : "覃建荔 13086928862"
  ? !ruby/symbol geo_id
  : 305
  ? !ruby/symbol intro
  : ~
  ? !ruby/symbol latitude
  : "25.4144202"
  ? !ruby/symbol longitude
  : "107.9696782"
  ? !ruby/symbol name
  : 水尧小学
  ? !ruby/symbol old_id
  : 144
- 
  ? !ruby/symbol address
  : 云南省维西县塔城镇塔城完小
  ? !ruby/symbol contact
  : "和金华(四年级班主任) 139-8877-2269"
  ? !ruby/symbol geo_id
  : 322
  ? !ruby/symbol intro
  : ~
  ? !ruby/symbol latitude
  : "27.6065158"
  ? !ruby/symbol longitude
  : "99.3937539"
  ? !ruby/symbol name
  : 迪庆州维西县塔城完小
  ? !ruby/symbol old_id
  : 145
- 
  ? !ruby/symbol address
  : 广西龙胜县和平乡白水小学
  ? !ruby/symbol contact
  : "韦顶院  13457315190"
  ? !ruby/symbol geo_id
  : 241
  ? !ruby/symbol intro
  : ~
  ? !ruby/symbol latitude
  : "25.8102456"
  ? !ruby/symbol longitude
  : "109.7493169"
  ? !ruby/symbol name
  : 桂林市龙胜和平乡白水小学
  ? !ruby/symbol old_id
  : 146
- 
  ? !ruby/symbol address
  : 云南省迪庆州维西县叶枝镇
  ? !ruby/symbol contact
  : "李宏星(校长) 139-8871-2698"
  ? !ruby/symbol geo_id
  : 322
  ? !ruby/symbol intro
  : ~
  ? !ruby/symbol latitude
  : "27.7003655"
  ? !ruby/symbol longitude
  : "99.0466558"
  ? !ruby/symbol name
  : 迪庆州维西县叶枝镇梓里小学
  ? !ruby/symbol old_id
  : 148
- 
  ? !ruby/symbol address
  : 云南省迪庆藏族自治州维西傈僳族自治县叶枝镇叶枝中学
  ? !ruby/symbol contact
  : " "
  ? !ruby/symbol geo_id
  : 322
  ? !ruby/symbol intro
  : ~
  ? !ruby/symbol latitude
  : "27.7003655"
  ? !ruby/symbol longitude
  : "99.0466558"
  ? !ruby/symbol name
  : 迪庆藏族自治州维西傈僳族自治县叶枝中学
  ? !ruby/symbol old_id
  : 149
- 
  ? !ruby/symbol address
  : 云南省迪庆藏族自治州德钦县云岭乡西当村雨崩小学
  ? !ruby/symbol contact
  : "刘一村  13988747097"
  ? !ruby/symbol geo_id
  : 322
  ? !ruby/symbol intro
  : ~
  ? !ruby/symbol latitude
  : "28.397539858424512"
  ? !ruby/symbol longitude
  : "98.79014611244202"
  ? !ruby/symbol name
  : 雨崩小学
  ? !ruby/symbol old_id
  : 151
- 
  ? !ruby/symbol address
  : 天涯镇
  ? !ruby/symbol contact
  : "董主任 13838968593"
  ? !ruby/symbol geo_id
  : 255
  ? !ruby/symbol intro
  : ~
  ? !ruby/symbol latitude
  : "18.3097441"
  ? !ruby/symbol longitude
  : "109.3133520"
  ? !ruby/symbol name
  : 三亚市天涯镇育才中心小学
  ? !ruby/symbol old_id
  : 152
- 
  ? !ruby/symbol address
  : 云南省迪庆藏族自治州维西傈僳族自治县叶枝镇梓里小学
  ? !ruby/symbol contact
  : " "
  ? !ruby/symbol geo_id
  : 322
  ? !ruby/symbol intro
  : ~
  ? !ruby/symbol latitude
  : "27.7003655"
  ? !ruby/symbol longitude
  : "99.0466558"
  ? !ruby/symbol name
  : 迪庆藏族自治州维西傈僳族自治县叶枝镇梓里小学
  ? !ruby/symbol old_id
  : 153
- 
  ? !ruby/symbol address
  : 天全县紫石乡大仁烟村二组
  ? !ruby/symbol contact
  : "徐福蓉 13547485414"
  ? !ruby/symbol geo_id
  : 290
  ? !ruby/symbol intro
  : ~
  ? !ruby/symbol latitude
  : "30.0447626"
  ? !ruby/symbol longitude
  : "102.6013630"
  ? !ruby/symbol name
  : 大仁烟小学
  ? !ruby/symbol old_id
  : 154
- 
  ? !ruby/symbol address
  : 荔波县水尧乡政府
  ? !ruby/symbol contact
  : "覃建荔 13086928862"
  ? !ruby/symbol geo_id
  : 305
  ? !ruby/symbol intro
  : ~
  ? !ruby/symbol latitude
  : "25.4144202"
  ? !ruby/symbol longitude
  : "107.9696782"
  ? !ruby/symbol name
  : 水尧中学
  ? !ruby/symbol old_id
  : 155
- 
  ? !ruby/symbol address
  : 荔波县翁昂乡翁昂小学
  ? !ruby/symbol contact
  : "韦个宁 13885426165"
  ? !ruby/symbol geo_id
  : 305
  ? !ruby/symbol intro
  : ~
  ? !ruby/symbol latitude
  : "25.2473443"
  ? !ruby/symbol longitude
  : "107.9059118"
  ? !ruby/symbol name
  : 翁昂小学
  ? !ruby/symbol old_id
  : 156
- 
  ? !ruby/symbol address
  : 荔波县洞塘翁昂乡已陇村尧桥组尧桥小学
  ? !ruby/symbol contact
  : "覃岳辉 13638044230"
  ? !ruby/symbol geo_id
  : 305
  ? !ruby/symbol intro
  : ~
  ? !ruby/symbol latitude
  : "25.247180194609925"
  ? !ruby/symbol longitude
  : "107.9025650024414"
  ? !ruby/symbol name
  : 尧桥小学
  ? !ruby/symbol old_id
  : 157
- 
  ? !ruby/symbol address
  : 广西柳州融水县滚贝侗族乡尧佐村小学
  ? !ruby/symbol contact
  : "伍耀辉 "
  ? !ruby/symbol geo_id
  : 240
  ? !ruby/symbol intro
  : ~
  ? !ruby/symbol latitude
  : "25.3612436"
  ? !ruby/symbol longitude
  : "108.8589387"
  ? !ruby/symbol name
  : 柳州市融水县滚贝侗族乡尧佐村小学
  ? !ruby/symbol old_id
  : 158
- 
  ? !ruby/symbol address
  : 维西县巴迪乡巴迪中学
  ? !ruby/symbol contact
  : "付国荣 139-8871-4975"
  ? !ruby/symbol geo_id
  : 322
  ? !ruby/symbol intro
  : ~
  ? !ruby/symbol latitude
  : "27.8695502"
  ? !ruby/symbol longitude
  : "99.0053932"
  ? !ruby/symbol name
  : 迪庆州维西县巴迪中学
  ? !ruby/symbol old_id
  : 159
- 
  ? !ruby/symbol address
  : 云南省腾冲县清水乡良盈村芭蕉关完小
  ? !ruby/symbol contact
  : "李悝连 139-8754-9697"
  ? !ruby/symbol geo_id
  : 310
  ? !ruby/symbol intro
  : ~
  ? !ruby/symbol latitude
  : "24.9399695"
  ? !ruby/symbol longitude
  : "98.4605335"
  ? !ruby/symbol name
  : 保山市腾冲县清水乡良盈村芭蕉关小学
  ? !ruby/symbol old_id
  : 160
- 
  ? !ruby/symbol address
  : 阳朔县高田镇凤楼村委
  ? !ruby/symbol contact
  : "何海兴 13877378009"
  ? !ruby/symbol geo_id
  : 241
  ? !ruby/symbol intro
  : ~
  ? !ruby/symbol latitude
  : "24.7101519"
  ? !ruby/symbol longitude
  : "110.4643052"
  ? !ruby/symbol name
  : 凤楼小学
  ? !ruby/symbol old_id
  : 161
- 
  ? !ruby/symbol address
  : 乐昌五山镇坪田乡
  ? !ruby/symbol contact
  : "连兰富 13570784908"
  ? !ruby/symbol geo_id
  : 221
  ? !ruby/symbol intro
  : ~
  ? !ruby/symbol latitude
  : "25.2602540"
  ? !ruby/symbol longitude
  : "113.4922525"
  ? !ruby/symbol name
  : 坪田小学
  ? !ruby/symbol old_id
  : 162
- 
  ? !ruby/symbol address
  : 遂川县戴家埔乡阡陌村
  ? !ruby/symbol contact
  : "6482282 6482282"
  ? !ruby/symbol geo_id
  : 142
  ? !ruby/symbol intro
  : ~
  ? !ruby/symbol latitude
  : "26.2137807"
  ? !ruby/symbol longitude
  : "114.1106753"
  ? !ruby/symbol name
  : 阡陌小学
  ? !ruby/symbol old_id
  : 163
- 
  ? !ruby/symbol address
  : 都昌县大港镇丹山村委会万年岭
  ? !ruby/symbol contact
  : "詹学勇  0792－5350216"
  ? !ruby/symbol geo_id
  : 138
  ? !ruby/symbol intro
  : ~
  ? !ruby/symbol latitude
  : "29.5522101"
  ? !ruby/symbol longitude
  : "116.4792724"
  ? !ruby/symbol name
  : 万年小学
  ? !ruby/symbol old_id
  : 164
- 
  ? !ruby/symbol address
  : 克州阿克陶县布伦口乡
  ? !ruby/symbol contact
  : "吾买尔湖加 13779602074"
  ? !ruby/symbol geo_id
  : 380
  ? !ruby/symbol intro
  : ~
  ? !ruby/symbol latitude
  : "38.6681010"
  ? !ruby/symbol longitude
  : "74.9397030"
  ? !ruby/symbol name
  : 苏巴什小学
  ? !ruby/symbol old_id
  : 165
- 
  ? !ruby/symbol address
  : 察布查尔锡伯族自治县察布查尔镇蒙霍尔村小学
  ? !ruby/symbol contact
  : "王斌 13579723123"
  ? !ruby/symbol geo_id
  : 384
  ? !ruby/symbol intro
  : ~
  ? !ruby/symbol latitude
  : "43.8373160"
  ? !ruby/symbol longitude
  : "81.1756270"
  ? !ruby/symbol name
  : 蒙霍尔村小学
  ? !ruby/symbol old_id
  : 166
- 
  ? !ruby/symbol address
  : 贡山县丙中洛秋那桶嘎干堂小学
  ? !ruby/symbol contact
  : "高大权  0886-3519404"
  ? !ruby/symbol geo_id
  : 321
  ? !ruby/symbol intro
  : ~
  ? !ruby/symbol latitude
  : "28.097617702729817"
  ? !ruby/symbol longitude
  : "98.57239365577698"
  ? !ruby/symbol name
  : 嘎干堂小学
  ? !ruby/symbol old_id
  : 167
- 
  ? !ruby/symbol address
  : 云南省丽江市玉龙纳西族自治县拉市乡吉余村
  ? !ruby/symbol contact
  : "和协增 13908881597"
  ? !ruby/symbol geo_id
  : 312
  ? !ruby/symbol intro
  : ~
  ? !ruby/symbol latitude
  : "26.8484489"
  ? !ruby/symbol longitude
  : "100.1479714"
  ? !ruby/symbol name
  : 丽江市玉龙纳西族自治县拉市乡吉余村吉余完小
  ? !ruby/symbol old_id
  : 170
- 
  ? !ruby/symbol address
  : 玉龙纳西族自治县拉市乡吉余启南小学
  ? !ruby/symbol contact
  : "李顺莲 0888-5441267"
  ? !ruby/symbol geo_id
  : 312
  ? !ruby/symbol intro
  : ~
  ? !ruby/symbol latitude
  : "26.8484489"
  ? !ruby/symbol longitude
  : "100.1479714"
  ? !ruby/symbol name
  : 吉余启南小学（村小）
  ? !ruby/symbol old_id
  : 171
- 
  ? !ruby/symbol address
  : 福贡县马吉乡布腊村
  ? !ruby/symbol contact
  : "普永恒 13988634321"
  ? !ruby/symbol geo_id
  : 321
  ? !ruby/symbol intro
  : ~
  ? !ruby/symbol latitude
  : "27.3948051"
  ? !ruby/symbol longitude
  : "98.8299231"
  ? !ruby/symbol name
  : 布腊小学
  ? !ruby/symbol old_id
  : 172
- 
  ? !ruby/symbol address
  : 河津市小梁乡东湖潮村
  ? !ruby/symbol contact
  : "王俊令 13835878638"
  ? !ruby/symbol geo_id
  : 23
  ? !ruby/symbol intro
  : ~
  ? !ruby/symbol latitude
  : "35.5098199"
  ? !ruby/symbol longitude
  : "110.6999467"
  ? !ruby/symbol name
  : 东湖潮小学
  ? !ruby/symbol old_id
  : 173
- 
  ? !ruby/symbol address
  : 区河津市小梁乡中湖潮村
  ? !ruby/symbol contact
  : "阮泽梅 13934375031"
  ? !ruby/symbol geo_id
  : 23
  ? !ruby/symbol intro
  : ~
  ? !ruby/symbol latitude
  : "35.5098199"
  ? !ruby/symbol longitude
  : "110.6999467"
  ? !ruby/symbol name
  : 中湖潮小学
  ? !ruby/symbol old_id
  : 174
- 
  ? !ruby/symbol address
  : 玛沁县下大武乡寄宿制小学
  ? !ruby/symbol contact
  : "长寿 13897158111"
  ? !ruby/symbol geo_id
  : 363
  ? !ruby/symbol intro
  : ~
  ? !ruby/symbol latitude
  : "35.0027720"
  ? !ruby/symbol longitude
  : "99.2607770"
  ? !ruby/symbol name
  : 下大武乡寄宿制小学
  ? !ruby/symbol old_id
  : 175
- 
  ? !ruby/symbol address
  : 玛沁县雪山乡寄宿制藏文小学
  ? !ruby/symbol contact
  : "华才 13909757107"
  ? !ruby/symbol geo_id
  : 363
  ? !ruby/symbol intro
  : ~
  ? !ruby/symbol latitude
  : "34.4837298"
  ? !ruby/symbol longitude
  : "100.2349020"
  ? !ruby/symbol name
  : 寄宿制藏文小学
  ? !ruby/symbol old_id
  : 177
- 
  ? !ruby/symbol address
  : 沁阳常平乡杨庄河村
  ? !ruby/symbol contact
  : "张林林 0391-5976890"
  ? !ruby/symbol geo_id
  : 169
  ? !ruby/symbol intro
  : ~
  ? !ruby/symbol latitude
  : "35.2431534"
  ? !ruby/symbol longitude
  : "112.9344409"
  ? !ruby/symbol name
  : 杨庄河村信孚希望小学
  ? !ruby/symbol old_id
  : 178
- 
  ? !ruby/symbol address
  : 盐源县树河镇草坪村草坪小学
  ? !ruby/symbol contact
  : "王文春 13981501838"
  ? !ruby/symbol geo_id
  : 295
  ? !ruby/symbol intro
  : ~
  ? !ruby/symbol latitude
  : "27.2762621"
  ? !ruby/symbol longitude
  : "101.8042447"
  ? !ruby/symbol name
  : 草坪小学
  ? !ruby/symbol old_id
  : 179
- 
  ? !ruby/symbol address
  : 四川省凉山州盐源县博大乡博大小学
  ? !ruby/symbol contact
  : "米祥 13881587523"
  ? !ruby/symbol geo_id
  : 295
  ? !ruby/symbol intro
  : ~
  ? !ruby/symbol latitude
  : "27.4448810"
  ? !ruby/symbol longitude
  : "101.1807500"
  ? !ruby/symbol name
  : 凉山州盐源县博大小学
  ? !ruby/symbol old_id
  : 180
- 
  ? !ruby/symbol address
  : 盐源县双河村古柏小学
  ? !ruby/symbol contact
  : "罗校长 13981590761"
  ? !ruby/symbol geo_id
  : 295
  ? !ruby/symbol intro
  : ~
  ? !ruby/symbol latitude
  : "27.4226428"
  ? !ruby/symbol longitude
  : "101.5091872"
  ? !ruby/symbol name
  : 古柏小学
  ? !ruby/symbol old_id
  : 181
- 
  ? !ruby/symbol address
  : 九寨沟县大录乡大录村
  ? !ruby/symbol contact
  : "朱玉贵 13518436585"
  ? !ruby/symbol geo_id
  : 293
  ? !ruby/symbol intro
  : ~
  ? !ruby/symbol latitude
  : "33.5620965"
  ? !ruby/symbol longitude
  : "103.6712011"
  ? !ruby/symbol name
  : 阿坝州九寨沟县大录中心校
  ? !ruby/symbol old_id
  : 182
- 
  ? !ruby/symbol address
  : 九寨沟县郭元乡郭元村
  ? !ruby/symbol contact
  : "李继平 13568797598"
  ? !ruby/symbol geo_id
  : 293
  ? !ruby/symbol intro
  : ~
  ? !ruby/symbol latitude
  : "33.1197051"
  ? !ruby/symbol longitude
  : "104.3232736"
  ? !ruby/symbol name
  : 阿坝州九寨沟县郭元乡中心校
  ? !ruby/symbol old_id
  : 183
- 
  ? !ruby/symbol address
  : 九寨沟县黑河乡头道村
  ? !ruby/symbol contact
  : "塔果 13990441231"
  ? !ruby/symbol geo_id
  : 293
  ? !ruby/symbol intro
  : ~
  ? !ruby/symbol latitude
  : "33.5556731"
  ? !ruby/symbol longitude
  : "103.9259503"
  ? !ruby/symbol name
  : 阿坝州九寨沟县黑河乡头道村中心校
  ? !ruby/symbol old_id
  : 184
- 
  ? !ruby/symbol address
  : 九寨沟县陵江乡七里村
  ? !ruby/symbol contact
  : "陈杰 13778691236"
  ? !ruby/symbol geo_id
  : 293
  ? !ruby/symbol intro
  : ~
  ? !ruby/symbol latitude
  : "33.4453491"
  ? !ruby/symbol longitude
  : "104.0589345"
  ? !ruby/symbol name
  : 阿坝州九寨沟县陵江乡中心小学校
  ? !ruby/symbol old_id
  : 185
- 
  ? !ruby/symbol address
  : 九寨沟县玉瓦乡四道村
  ? !ruby/symbol contact
  : "李继平 13548395988"
  ? !ruby/symbol geo_id
  : 293
  ? !ruby/symbol intro
  : ~
  ? !ruby/symbol latitude
  : "33.5768629"
  ? !ruby/symbol longitude
  : "103.8959104"
  ? !ruby/symbol name
  : 阿坝州九寨沟县玉瓦小学
  ? !ruby/symbol old_id
  : 186
- 
  ? !ruby/symbol address
  : 九寨沟县玉瓦乡四道城村
  ? !ruby/symbol contact
  : "塔果 13438795599"
  ? !ruby/symbol geo_id
  : 293
  ? !ruby/symbol intro
  : ~
  ? !ruby/symbol latitude
  : "33.5768629"
  ? !ruby/symbol longitude
  : "103.8959104"
  ? !ruby/symbol name
  : 阿坝州九寨沟县玉瓦中学
  ? !ruby/symbol old_id
  : 187
- 
  ? !ruby/symbol address
  : "甘肃省古浪县裴家营下川小学		甘肃省古浪县裴家营下川小学"
  ? !ruby/symbol contact
  : "张汉武 13993555370"
  ? !ruby/symbol geo_id
  : 348
  ? !ruby/symbol intro
  : ~
  ? !ruby/symbol latitude
  : "37.4701919"
  ? !ruby/symbol longitude
  : "102.8975415"
  ? !ruby/symbol name
  : 武威市古浪县裴家营下川小学
  ? !ruby/symbol old_id
  : 188
- 
  ? !ruby/symbol address
  : 盐源县前所乡中村
  ? !ruby/symbol contact
  : "沙锋 0888-5591110"
  ? !ruby/symbol geo_id
  : 295
  ? !ruby/symbol intro
  : ~
  ? !ruby/symbol latitude
  : "27.8224578"
  ? !ruby/symbol longitude
  : "100.7787127"
  ? !ruby/symbol name
  : 前所乡中心小学
  ? !ruby/symbol old_id
  : 189
- 
  ? !ruby/symbol address
  : 盐源县前所乡上村小学
  ? !ruby/symbol contact
  : "蔡左顺 0888-5591108"
  ? !ruby/symbol geo_id
  : 295
  ? !ruby/symbol intro
  : ~
  ? !ruby/symbol latitude
  : "27.8224578"
  ? !ruby/symbol longitude
  : "100.7787127"
  ? !ruby/symbol name
  : 上村小学
  ? !ruby/symbol old_id
  : 190
- 
  ? !ruby/symbol address
  : 四川省凉山州盐源县前所乡中村爱心小学
  ? !ruby/symbol contact
  : "宾玛 13508882715"
  ? !ruby/symbol geo_id
  : 295
  ? !ruby/symbol intro
  : ~
  ? !ruby/symbol latitude
  : "27.8224578"
  ? !ruby/symbol longitude
  : "100.7787127"
  ? !ruby/symbol name
  : 凉山州盐源县前所乡中村爱心小学
  ? !ruby/symbol old_id
  : 193
- 
  ? !ruby/symbol address
  : 盐源县前所乡逗乐河村
  ? !ruby/symbol contact
  : "卢学才 0888-5591835"
  ? !ruby/symbol geo_id
  : 295
  ? !ruby/symbol intro
  : ~
  ? !ruby/symbol latitude
  : "27.8224578"
  ? !ruby/symbol longitude
  : "100.7787127"
  ? !ruby/symbol name
  : 逗乐河村小学
  ? !ruby/symbol old_id
  : 194
- 
  ? !ruby/symbol address
  : 盐源县前所乡龙洼村
  ? !ruby/symbol contact
  : "沈扎石 无"
  ? !ruby/symbol geo_id
  : 295
  ? !ruby/symbol intro
  : ~
  ? !ruby/symbol latitude
  : "27.8224578"
  ? !ruby/symbol longitude
  : "100.7787127"
  ? !ruby/symbol name
  : 龙洼村小学
  ? !ruby/symbol old_id
  : 195
- 
  ? !ruby/symbol address
  : 永宁乡八旗村
  ? !ruby/symbol contact
  : "石春武 0888-5861161"
  ? !ruby/symbol geo_id
  : 295
  ? !ruby/symbol intro
  : ~
  ? !ruby/symbol latitude
  : "39.5305960"
  ? !ruby/symbol longitude
  : "122.5690467"
  ? !ruby/symbol name
  : 永宁乡中学
  ? !ruby/symbol old_id
  : 196
- 
  ? !ruby/symbol address
  : 四川省盐源县泸沽湖镇达祖社
  ? !ruby/symbol contact
  : "林子闳 15881572103"
  ? !ruby/symbol geo_id
  : 295
  ? !ruby/symbol intro
  : |
      2000年，达祖小学被撤。
      2005年，达祖小学复课。
      2010年，我们行走在路上。
      让我们一起，有爱就有希望！
  ? !ruby/symbol latitude
  : "27.748474375929096"
  ? !ruby/symbol longitude
  : "100.79904556274414"
  ? !ruby/symbol name
  : 泸沽湖达祖小学
  ? !ruby/symbol old_id
  : 197
- 
  ? !ruby/symbol address
  : 永宁乡温泉行政村安家村
  ? !ruby/symbol contact
  : "陈老师 13578363662"
  ? !ruby/symbol geo_id
  : 312
  ? !ruby/symbol intro
  : ~
  ? !ruby/symbol latitude
  : "39.5305960"
  ? !ruby/symbol longitude
  : "122.5690467"
  ? !ruby/symbol name
  : 丽江市宁蒗县永宁乡中国水泥希望小学(温泉安家村小)
  ? !ruby/symbol old_id
  : 198
- 
  ? !ruby/symbol address
  : 云南省丽江市宁蒗县临利乡
  ? !ruby/symbol contact
  : "任老师 13578363662"
  ? !ruby/symbol geo_id
  : 312
  ? !ruby/symbol intro
  : ~
  ? !ruby/symbol latitude
  : "27.2822040"
  ? !ruby/symbol longitude
  : "100.8518950"
  ? !ruby/symbol name
  : 丽江市宁蒗县临利乡白草坪完小
  ? !ruby/symbol old_id
  : 199
- 
  ? !ruby/symbol address
  : 云南省宁蒗县永宁乡
  ? !ruby/symbol contact
  : "杨宏伟（教务处） 13708823120"
  ? !ruby/symbol geo_id
  : 312
  ? !ruby/symbol intro
  : ~
  ? !ruby/symbol latitude
  : "27.8419197"
  ? !ruby/symbol longitude
  : "100.6950900"
  ? !ruby/symbol name
  : 丽江市宁蒗县永宁乡永宁中心校(平静完小)
  ? !ruby/symbol old_id
  : 204
- 
  ? !ruby/symbol address
  : 永宁乡温泉行政村刘家村
  ? !ruby/symbol contact
  : "杨晓松（所属完小校长） 13578368068"
  ? !ruby/symbol geo_id
  : 312
  ? !ruby/symbol intro
  : ~
  ? !ruby/symbol latitude
  : "39.5305960"
  ? !ruby/symbol longitude
  : "122.5690467"
  ? !ruby/symbol name
  : 丽江市宁蒗县温泉刘家村小
  ? !ruby/symbol old_id
  : 207
- 
  ? !ruby/symbol address
  : 云南省丽江市宁蒗县永宁乡温泉行政村
  ? !ruby/symbol contact
  : "杨晓松 13578368068"
  ? !ruby/symbol geo_id
  : 312
  ? !ruby/symbol intro
  : ~
  ? !ruby/symbol latitude
  : "27.8419197"
  ? !ruby/symbol longitude
  : "100.6950900"
  ? !ruby/symbol name
  : 丽江市宁蒗县永宁乡温泉完小
  ? !ruby/symbol old_id
  : 208
- 
  ? !ruby/symbol address
  : 永宁乡温泉行政村
  ? !ruby/symbol contact
  : "杨晓松（所属完小校长) 13578368068"
  ? !ruby/symbol geo_id
  : 312
  ? !ruby/symbol intro
  : ~
  ? !ruby/symbol latitude
  : "39.5305960"
  ? !ruby/symbol longitude
  : "122.5690467"
  ? !ruby/symbol name
  : 丽江市宁蒗县永宁乡温泉新星村小
  ? !ruby/symbol old_id
  : 209
- 
  ? !ruby/symbol address
  : 永宁乡温泉行政村沈家村
  ? !ruby/symbol contact
  : "杨晓松（所属完小校长） 13578368068"
  ? !ruby/symbol geo_id
  : 312
  ? !ruby/symbol intro
  : ~
  ? !ruby/symbol latitude
  : "39.5305960"
  ? !ruby/symbol longitude
  : "122.5690467"
  ? !ruby/symbol name
  : 丽江市宁蒗县永宁乡温泉沈家村小
  ? !ruby/symbol old_id
  : 210
- 
  ? !ruby/symbol address
  : 云南省丽江市宁蒗县永宁乡落水行政村浪放普乐自然村
  ? !ruby/symbol contact
  : "赵庭钟（校长） 13988850163"
  ? !ruby/symbol geo_id
  : 312
  ? !ruby/symbol intro
  : ~
  ? !ruby/symbol latitude
  : "27.8419197"
  ? !ruby/symbol longitude
  : "100.6950900"
  ? !ruby/symbol name
  : 丽江市宁蒗县永宁乡落水浪放完小
  ? !ruby/symbol old_id
  : 211
- 
  ? !ruby/symbol address
  : 宁蒗县贝尔乡
  ? !ruby/symbol contact
  : "木根元 13312697135"
  ? !ruby/symbol geo_id
  : 312
  ? !ruby/symbol intro
  : ~
  ? !ruby/symbol latitude
  : "27.282204481715126"
  ? !ruby/symbol longitude
  : "100.85208892822265"
  ? !ruby/symbol name
  : 贝尔中学
  ? !ruby/symbol old_id
  : 212
- 
  ? !ruby/symbol address
  : 永宁乡泥鳅沟行政村水蜡烛村
  ? !ruby/symbol contact
  : "涂建成 0888-5591036"
  ? !ruby/symbol geo_id
  : 312
  ? !ruby/symbol intro
  : ~
  ? !ruby/symbol latitude
  : "39.5305960"
  ? !ruby/symbol longitude
  : "122.5690467"
  ? !ruby/symbol name
  : 丽江市宁蒗县永宁乡泥鳅沟行政村水蜡烛村中良子小学
  ? !ruby/symbol old_id
  : 214
- 
  ? !ruby/symbol address
  : 丽江市古城区第一中学
  ? !ruby/symbol contact
  : "和杰 0888-5121159"
  ? !ruby/symbol geo_id
  : 312
  ? !ruby/symbol intro
  : ~
  ? !ruby/symbol latitude
  : "26.8760955"
  ? !ruby/symbol longitude
  : "100.2299452"
  ? !ruby/symbol name
  : 丽江市古城区第一中学
  ? !ruby/symbol old_id
  : 215
- 
  ? !ruby/symbol address
  : 宁蒗县永宁乡拖支行政村大村
  ? !ruby/symbol contact
  : "和雨 15987951190"
  ? !ruby/symbol geo_id
  : 312
  ? !ruby/symbol intro
  : ~
  ? !ruby/symbol latitude
  : "27.8419197"
  ? !ruby/symbol longitude
  : "100.6950900"
  ? !ruby/symbol name
  : 拖支完小
  ? !ruby/symbol old_id
  : 221
- 
  ? !ruby/symbol address
  : 永宁乡拖支行政村马家坪自然村
  ? !ruby/symbol contact
  : "陶老师 0888-5591012"
  ? !ruby/symbol geo_id
  : 312
  ? !ruby/symbol intro
  : ~
  ? !ruby/symbol latitude
  : "39.5305960"
  ? !ruby/symbol longitude
  : "122.5690467"
  ? !ruby/symbol name
  : 丽江市宁蒗县永宁乡拖支马家坪村小
  ? !ruby/symbol old_id
  : 231
- 
  ? !ruby/symbol address
  : 永宁行政村高河坎自然村
  ? !ruby/symbol contact
  : "樊永德 0888-5861135"
  ? !ruby/symbol geo_id
  : 312
  ? !ruby/symbol intro
  : ~
  ? !ruby/symbol latitude
  : "27.771962522273313"
  ? !ruby/symbol longitude
  : "100.68523406982422"
  ? !ruby/symbol name
  : 高河坎小学
  ? !ruby/symbol old_id
  : 239
- 
  ? !ruby/symbol address
  : 四川省甘孜州炉霍县宗塔乡
  ? !ruby/symbol contact
  : "亚玛达吉 13568690795"
  ? !ruby/symbol geo_id
  : 294
  ? !ruby/symbol intro
  : 七色花草原...
  ? !ruby/symbol latitude
  : "31.698961137007178"
  ? !ruby/symbol longitude
  : "100.84213256835938"
  ? !ruby/symbol name
  : 甘孜州炉霍县四区宗塔中心校
  ? !ruby/symbol old_id
  : 240
- 
  ? !ruby/symbol address
  : 炉霍县四区宗塔乡降巴小学
  ? !ruby/symbol contact
  : "澄曲彭 13568699335"
  ? !ruby/symbol geo_id
  : 294
  ? !ruby/symbol intro
  : ~
  ? !ruby/symbol latitude
  : "31.3917900"
  ? !ruby/symbol longitude
  : "100.6763720"
  ? !ruby/symbol name
  : 降巴小学
  ? !ruby/symbol old_id
  : 241
- 
  ? !ruby/symbol address
  : 炉霍县上罗乡
  ? !ruby/symbol contact
  : "四郎达吉 13551692110"
  ? !ruby/symbol geo_id
  : 294
  ? !ruby/symbol intro
  : ~
  ? !ruby/symbol latitude
  : "31.5802435"
  ? !ruby/symbol longitude
  : "100.7549075"
  ? !ruby/symbol name
  : 牧民小学
  ? !ruby/symbol old_id
  : 242
- 
  ? !ruby/symbol address
  : 四川省甘孜州康定县塔公乡
  ? !ruby/symbol contact
  : "罗琼拉姗 13568696385"
  ? !ruby/symbol geo_id
  : 294
  ? !ruby/symbol intro
  : ~
  ? !ruby/symbol latitude
  : "30.3193800"
  ? !ruby/symbol longitude
  : "101.5217226"
  ? !ruby/symbol name
  : 甘孜州康定县塔公乡木雅祖庆学校
  ? !ruby/symbol old_id
  : 243
- 
  ? !ruby/symbol address
  : 道孚县八美镇协德乡惠远寺小学
  ? !ruby/symbol contact
  : "生措 13678360295"
  ? !ruby/symbol geo_id
  : 294
  ? !ruby/symbol intro
  : ~
  ? !ruby/symbol latitude
  : "30.4816815"
  ? !ruby/symbol longitude
  : "101.4846150"
  ? !ruby/symbol name
  : 惠远寺小学
  ? !ruby/symbol old_id
  : 244
- 
  ? !ruby/symbol address
  : 叙永县天池镇红桥小学
  ? !ruby/symbol contact
  : "袁光华 13982439395 "
  ? !ruby/symbol geo_id
  : 278
  ? !ruby/symbol intro
  : ~
  ? !ruby/symbol latitude
  : "28.3288203"
  ? !ruby/symbol longitude
  : "105.4362584"
  ? !ruby/symbol name
  : 红桥小学
  ? !ruby/symbol old_id
  : 245
- 
  ? !ruby/symbol address
  : 四川省叙永县后山镇海力村小学
  ? !ruby/symbol contact
  : "何廷虎 0830-6999864"
  ? !ruby/symbol geo_id
  : 278
  ? !ruby/symbol intro
  : ~
  ? !ruby/symbol latitude
  : "27.9911216"
  ? !ruby/symbol longitude
  : "105.5015687"
  ? !ruby/symbol name
  : 泸州市叙永县后山镇海力村小学
  ? !ruby/symbol old_id
  : 246
- 
  ? !ruby/symbol address
  : 四川省叙永县后山镇海坝完小学
  ? !ruby/symbol contact
  : "袁汝良 0830-6800054 15908263032 "
  ? !ruby/symbol geo_id
  : 278
  ? !ruby/symbol intro
  : ~
  ? !ruby/symbol latitude
  : "28.19792655722615"
  ? !ruby/symbol longitude
  : "105.46875"
  ? !ruby/symbol name
  : 海坝完小学
  ? !ruby/symbol old_id
  : 247
- 
  ? !ruby/symbol address
  : 红原县藏文中学
  ? !ruby/symbol contact
  : "罗布让 13909047345 0838-2662345（办公室） 0837-2662177 （家）、0837-2661069（小灵通） 0837-2662810（家）"
  ? !ruby/symbol geo_id
  : 293
  ? !ruby/symbol intro
  : ~
  ? !ruby/symbol latitude
  : "32.7908913"
  ? !ruby/symbol longitude
  : "102.5444019"
  ? !ruby/symbol name
  : 红原县藏文中学
  ? !ruby/symbol old_id
  : 248
- 
  ? !ruby/symbol address
  : 盐源县树河镇德石乡德石小学
  ? !ruby/symbol contact
  : "马楷 13778636153"
  ? !ruby/symbol geo_id
  : 295
  ? !ruby/symbol intro
  : ~
  ? !ruby/symbol latitude
  : "27.2762621"
  ? !ruby/symbol longitude
  : "101.8042447"
  ? !ruby/symbol name
  : 德石小学
  ? !ruby/symbol old_id
  : 249
- 
  ? !ruby/symbol address
  : 河北省滦平县巴克什镇巴克什营村
  ? !ruby/symbol contact
  : "吴井峰 03148839119"
  ? !ruby/symbol geo_id
  : 11
  ? !ruby/symbol intro
  : ~
  ? !ruby/symbol latitude
  : "40.7238588"
  ? !ruby/symbol longitude
  : "117.1966381"
  ? !ruby/symbol name
  : 承德市滦平县巴克什营镇中心小学
  ? !ruby/symbol old_id
  : 251
- 
  ? !ruby/symbol address
  : 平山县下槐镇西黄泥村
  ? !ruby/symbol contact
  : "焦志强 135-8210-9071"
  ? !ruby/symbol geo_id
  : 4
  ? !ruby/symbol intro
  : ~
  ? !ruby/symbol latitude
  : "38.3633272"
  ? !ruby/symbol longitude
  : "113.8635674"
  ? !ruby/symbol name
  : 西黄泥小学
  ? !ruby/symbol old_id
  : 253
- 
  ? !ruby/symbol address
  : 平山县下槐镇长桑村
  ? !ruby/symbol contact
  : "李国文 150-3210-9018"
  ? !ruby/symbol geo_id
  : 4
  ? !ruby/symbol intro
  : ~
  ? !ruby/symbol latitude
  : "38.35814751983101"
  ? !ruby/symbol longitude
  : "113.86024475097656"
  ? !ruby/symbol name
  : 长桑小学
  ? !ruby/symbol old_id
  : 254
- 
  ? !ruby/symbol address
  : 辉县市上八里镇回龙村
  ? !ruby/symbol contact
  : "董勉富 13569445575"
  ? !ruby/symbol geo_id
  : 171
  ? !ruby/symbol intro
  : ~
  ? !ruby/symbol latitude
  : "35.5388835"
  ? !ruby/symbol longitude
  : "113.6096875"
  ? !ruby/symbol name
  : 回龙小学
  ? !ruby/symbol old_id
  : 255
- 
  ? !ruby/symbol address
  : 玉山县怀玉乡后叶村
  ? !ruby/symbol contact
  : "张敬铭 未知"
  ? !ruby/symbol geo_id
  : 145
  ? !ruby/symbol intro
  : ~
  ? !ruby/symbol latitude
  : "28.8828810"
  ? !ruby/symbol longitude
  : "117.9624695"
  ? !ruby/symbol name
  : 后叶小学
  ? !ruby/symbol old_id
  : 256
- 
  ? !ruby/symbol address
  : 江西省九江市都昌县大港镇丹山村委会
  ? !ruby/symbol contact
  : "李齐珠 13970221796    0792－5175116"
  ? !ruby/symbol geo_id
  : 138
  ? !ruby/symbol intro
  : ~
  ? !ruby/symbol latitude
  : "29.5522101"
  ? !ruby/symbol longitude
  : "116.4792724"
  ? !ruby/symbol name
  : 九江市都昌县大港镇丹山村太阳村鄱阳湖儿童救助中心
  ? !ruby/symbol old_id
  : 257
- 
  ? !ruby/symbol address
  : 江西省九江市都昌县大港镇丹山村委会万年岭
  ? !ruby/symbol contact
  : "詹学勇 0792－5350216"
  ? !ruby/symbol geo_id
  : 138
  ? !ruby/symbol intro
  : ~
  ? !ruby/symbol latitude
  : "29.5522101"
  ? !ruby/symbol longitude
  : "116.4792724"
  ? !ruby/symbol name
  : 九江市都昌县大港镇丹山村委会万年岭万年小学
  ? !ruby/symbol old_id
  : 258
- 
  ? !ruby/symbol address
  : 四川省甘孜藏族自治州炉霍县泥巴乡
  ? !ruby/symbol contact
  : " "
  ? !ruby/symbol geo_id
  : 294
  ? !ruby/symbol intro
  : ~
  ? !ruby/symbol latitude
  : "31.5154581"
  ? !ruby/symbol longitude
  : "100.6949188"
  ? !ruby/symbol name
  : 甘孜藏族自治州炉霍县泥巴乡汇日小学
  ? !ruby/symbol old_id
  : 259
- 
  ? !ruby/symbol address
  : 阿坝县安羌乡
  ? !ruby/symbol contact
  : "确旦  13882492224 （阿坝）13881741774（成都）"
  ? !ruby/symbol geo_id
  : 293
  ? !ruby/symbol intro
  : ~
  ? !ruby/symbol latitude
  : "32.7802550"
  ? !ruby/symbol longitude
  : "101.9046484"
  ? !ruby/symbol name
  : 安羌乡希望小学
  ? !ruby/symbol old_id
  : 260
- 
  ? !ruby/symbol address
  : 盐源县双河乡古柏村
  ? !ruby/symbol contact
  : "郎世荣 13118326736"
  ? !ruby/symbol geo_id
  : 295
  ? !ruby/symbol intro
  : ~
  ? !ruby/symbol latitude
  : "27.4226428"
  ? !ruby/symbol longitude
  : "101.5091872"
  ? !ruby/symbol name
  : 古柏小学
  ? !ruby/symbol old_id
  : 261
- 
  ? !ruby/symbol address
  : 榕江县兴华乡摆贝村
  ? !ruby/symbol contact
  : "潘志昌 13618555852"
  ? !ruby/symbol geo_id
  : 304
  ? !ruby/symbol intro
  : ~
  ? !ruby/symbol latitude
  : "25.8390490"
  ? !ruby/symbol longitude
  : "108.1680370"
  ? !ruby/symbol name
  : 摆贝初小
  ? !ruby/symbol old_id
  : 262
- 
  ? !ruby/symbol address
  : 山西省临县碛口镇街道小学
  ? !ruby/symbol contact
  : "张丽萍 13935805409"
  ? !ruby/symbol geo_id
  : 26
  ? !ruby/symbol intro
  : ~
  ? !ruby/symbol latitude
  : "37.6423539"
  ? !ruby/symbol longitude
  : "110.7941448"
  ? !ruby/symbol name
  : 碛口镇街道小学
  ? !ruby/symbol old_id
  : 263
- 
  ? !ruby/symbol address
  : 贵州省黎平县肇兴乡城格小学
  ? !ruby/symbol contact
  : "吴坤贤 13312435985"
  ? !ruby/symbol geo_id
  : 304
  ? !ruby/symbol intro
  : ~
  ? !ruby/symbol latitude
  : "25.9058589"
  ? !ruby/symbol longitude
  : "109.1812236"
  ? !ruby/symbol name
  : 黔东南州黎平县肇兴乡城格小学
  ? !ruby/symbol old_id
  : 264
- 
  ? !ruby/symbol address
  : 贵州省榕江县两汪乡空申小学
  ? !ruby/symbol contact
  : "杨光宏 13765597002"
  ? !ruby/symbol geo_id
  : 304
  ? !ruby/symbol intro
  : ~
  ? !ruby/symbol latitude
  : "26.3432000"
  ? !ruby/symbol longitude
  : "108.4383950"
  ? !ruby/symbol name
  : 黔东南州榕江县两汪乡空申小学
  ? !ruby/symbol old_id
  : 265
- 
  ? !ruby/symbol address
  : 广西隆安县屏山乡文化村小学
  ? !ruby/symbol contact
  : "许大佳 无"
  ? !ruby/symbol geo_id
  : 239
  ? !ruby/symbol intro
  : ~
  ? !ruby/symbol latitude
  : "22.9527041"
  ? !ruby/symbol longitude
  : "107.5759001"
  ? !ruby/symbol name
  : 南宁市隆安县屏山乡文化村小学
  ? !ruby/symbol old_id
  : 266
- 
  ? !ruby/symbol address
  : 广西隆安县屏山乡双语幼儿园
  ? !ruby/symbol contact
  : "黄水文 无"
  ? !ruby/symbol geo_id
  : 239
  ? !ruby/symbol intro
  : ~
  ? !ruby/symbol latitude
  : "22.9527041"
  ? !ruby/symbol longitude
  : "107.5759001"
  ? !ruby/symbol name
  : 南宁市隆安县屏山乡双语幼儿园
  ? !ruby/symbol old_id
  : 267
- 
  ? !ruby/symbol address
  : 广西隆安县屏山乡群力村小学
  ? !ruby/symbol contact
  : "黄秀 无"
  ? !ruby/symbol geo_id
  : 239
  ? !ruby/symbol intro
  : ~
  ? !ruby/symbol latitude
  : "22.9527041"
  ? !ruby/symbol longitude
  : "107.5759001"
  ? !ruby/symbol name
  : 南宁市隆安县屏山乡群力村小学
  ? !ruby/symbol old_id
  : 268
- 
  ? !ruby/symbol address
  : 广西隆安县屏山乡下力村小学
  ? !ruby/symbol contact
  : "黄海林 无"
  ? !ruby/symbol geo_id
  : 239
  ? !ruby/symbol intro
  : ~
  ? !ruby/symbol latitude
  : "22.9527041"
  ? !ruby/symbol longitude
  : "107.5759001"
  ? !ruby/symbol name
  : 南宁市隆安县屏山乡下力村小学
  ? !ruby/symbol old_id
  : 269
- 
  ? !ruby/symbol address
  : 广西隆安县古潭乡马村小学
  ? !ruby/symbol contact
  : "陆泽 无"
  ? !ruby/symbol geo_id
  : 239
  ? !ruby/symbol intro
  : ~
  ? !ruby/symbol latitude
  : "22.9826803"
  ? !ruby/symbol longitude
  : "107.7715990"
  ? !ruby/symbol name
  : 南宁市隆安县古潭乡马村小学
  ? !ruby/symbol old_id
  : 270
- 
  ? !ruby/symbol address
  : 丽江市宁蒗县永宁行政村杨柳湾自然村
  ? !ruby/symbol contact
  : "张老师 家电：0888-5591068"
  ? !ruby/symbol geo_id
  : 312
  ? !ruby/symbol intro
  : ~
  ? !ruby/symbol latitude
  : "27.2821997"
  ? !ruby/symbol longitude
  : "100.8519495"
  ? !ruby/symbol name
  : "丽江市宁蒗县永宁乡杨柳湾村小 "
  ? !ruby/symbol old_id
  : 271
- 
  ? !ruby/symbol address
  : 山西省临县碛口镇李家山小学
  ? !ruby/symbol contact
  : "严瑞芳 13891272564"
  ? !ruby/symbol geo_id
  : 26
  ? !ruby/symbol intro
  : ~
  ? !ruby/symbol latitude
  : "37.63516931145641"
  ? !ruby/symbol longitude
  : "110.77763557434082"
  ? !ruby/symbol name
  : 李家山小学
  ? !ruby/symbol old_id
  : 272
- 
  ? !ruby/symbol address
  : 云南省昭阳区大山包乡车路村
  ? !ruby/symbol contact
  : "陈太江、陈颖 （昭阳区：15808619099）（南昌：15870673480）"
  ? !ruby/symbol geo_id
  : 311
  ? !ruby/symbol intro
  : ~
  ? !ruby/symbol latitude
  : "27.4081933"
  ? !ruby/symbol longitude
  : "103.3130735"
  ? !ruby/symbol name
  : 昭通市昭阳区大山包乡车路村完小
  ? !ruby/symbol old_id
  : 273
- 
  ? !ruby/symbol address
  : 增城市正果镇畲族村
  ? !ruby/symbol contact
  : "盘校长 13416280214"
  ? !ruby/symbol geo_id
  : 217
  ? !ruby/symbol intro
  : ~
  ? !ruby/symbol latitude
  : "23.3622068"
  ? !ruby/symbol longitude
  : "113.8632323"
  ? !ruby/symbol name
  : 畲族小学
  ? !ruby/symbol old_id
  : 275
- 
  ? !ruby/symbol address
  : 松阳县玉岩镇根坑村
  ? !ruby/symbol contact
  : "兰建平 13857064534"
  ? !ruby/symbol geo_id
  : 105
  ? !ruby/symbol intro
  : ~
  ? !ruby/symbol latitude
  : "28.3706405"
  ? !ruby/symbol longitude
  : "119.2735929"
  ? !ruby/symbol name
  : 交塘小学
  ? !ruby/symbol old_id
  : 276
- 
  ? !ruby/symbol address
  : 泾源县泾河源镇兰大庄小学
  ? !ruby/symbol contact
  : "秦方喜 138-9544-5987"
  ? !ruby/symbol geo_id
  : 370
  ? !ruby/symbol intro
  : ~
  ? !ruby/symbol latitude
  : "35.4981600"
  ? !ruby/symbol longitude
  : "106.3306460"
  ? !ruby/symbol name
  : 兰大庄小学
  ? !ruby/symbol old_id
  : 277
- 
  ? !ruby/symbol address
  : 甘肃省会宁县翟所乡陈湾村
  ? !ruby/symbol contact
  : " "
  ? !ruby/symbol geo_id
  : 346
  ? !ruby/symbol intro
  : ~
  ? !ruby/symbol latitude
  : "35.6871219"
  ? !ruby/symbol longitude
  : "105.2619487"
  ? !ruby/symbol name
  : 白银市会宁县翟所乡陈湾小学
  ? !ruby/symbol old_id
  : 278
- 
  ? !ruby/symbol address
  : 浙江省建德市大同镇劳村
  ? !ruby/symbol contact
  : "吴志莲 13868112208"
  ? !ruby/symbol geo_id
  : 95
  ? !ruby/symbol intro
  : ~
  ? !ruby/symbol latitude
  : "29.3086910"
  ? !ruby/symbol longitude
  : "119.1104065"
  ? !ruby/symbol name
  : 建德市大同镇劳村第二小学
  ? !ruby/symbol old_id
  : 279
- 
  ? !ruby/symbol address
  : 高州市平山镇福芳梁静芬希望小学
  ? !ruby/symbol contact
  : "谢英林 13824859798"
  ? !ruby/symbol geo_id
  : 225
  ? !ruby/symbol intro
  : ~
  ? !ruby/symbol latitude
  : "22.09136613856583"
  ? !ruby/symbol longitude
  : "111.09649658203125"
  ? !ruby/symbol name
  : 梁静芬希望小学
  ? !ruby/symbol old_id
  : 280
- 
  ? !ruby/symbol address
  : 休宁县汪村镇田里小学
  ? !ruby/symbol contact
  : "叶学文 田里行政村村委主任张铁山 0559－7869088， 手机139－5595－3718"
  ? !ruby/symbol geo_id
  : 115
  ? !ruby/symbol intro
  : ~
  ? !ruby/symbol latitude
  : "29.8126484"
  ? !ruby/symbol longitude
  : "118.2465018"
  ? !ruby/symbol name
  : 田里小学
  ? !ruby/symbol old_id
  : 282
- 
  ? !ruby/symbol address
  : 安徽省毫州市涡阳县高公镇吕湖村
  ? !ruby/symbol contact
  : "沈世德 15056755447 13045634567（上海）"
  ? !ruby/symbol geo_id
  : 120
  ? !ruby/symbol intro
  : ~
  ? !ruby/symbol latitude
  : "33.4038660"
  ? !ruby/symbol longitude
  : "115.9008320"
  ? !ruby/symbol name
  : 复新志愿者学校
  ? !ruby/symbol old_id
  : 283
- 
  ? !ruby/symbol address
  : 甘肃省甘南州夏河县甘加乡八角城
  ? !ruby/symbol contact
  : "才让东珠/贡保加 13884056744/13909419802"
  ? !ruby/symbol geo_id
  : 356
  ? !ruby/symbol intro
  : ~
  ? !ruby/symbol latitude
  : "35.4001674"
  ? !ruby/symbol longitude
  : "102.5181580"
  ? !ruby/symbol name
  : 甘南州夏河县甘加乡八角城小学
  ? !ruby/symbol old_id
  : 284
- 
  ? !ruby/symbol address
  : 元阳县胜村普高老寨
  ? !ruby/symbol contact
  : "胡石宗 15987371311"
  ? !ruby/symbol geo_id
  : 316
  ? !ruby/symbol intro
  : ~
  ? !ruby/symbol latitude
  : "23.2199380"
  ? !ruby/symbol longitude
  : "102.8352230"
  ? !ruby/symbol name
  : 爱晖小学
  ? !ruby/symbol old_id
  : 285
- 
  ? !ruby/symbol address
  : 瑞丽市畹町芒棒乡回环村
  ? !ruby/symbol contact
  : "姬从华 13577573827"
  ? !ruby/symbol geo_id
  : 320
  ? !ruby/symbol intro
  : ~
  ? !ruby/symbol latitude
  : "24.0781900"
  ? !ruby/symbol longitude
  : "98.0730550"
  ? !ruby/symbol name
  : 回环小学
  ? !ruby/symbol old_id
  : 287
- 
  ? !ruby/symbol address
  : 云南省保山市腾冲县芒棒乡大田坡村
  ? !ruby/symbol contact
  : "毛庭芳 13577573827"
  ? !ruby/symbol geo_id
  : 310
  ? !ruby/symbol intro
  : ~
  ? !ruby/symbol latitude
  : "24.9286528"
  ? !ruby/symbol longitude
  : "98.6696143"
  ? !ruby/symbol name
  : 保山市腾冲县芒棒乡大田坡村大田坡完小
  ? !ruby/symbol old_id
  : 288
- 
  ? !ruby/symbol address
  : 元阳县胜村乡麻栗寨
  ? !ruby/symbol contact
  : "卢跃华 15911360171"
  ? !ruby/symbol geo_id
  : 316
  ? !ruby/symbol intro
  : ~
  ? !ruby/symbol latitude
  : "23.1202750"
  ? !ruby/symbol longitude
  : "102.7946253"
  ? !ruby/symbol name
  : 麻栗寨倮马点小学
  ? !ruby/symbol old_id
  : 289
- 
  ? !ruby/symbol address
  : 贵州省黔东南州从江县高增乡芭扒村
  ? !ruby/symbol contact
  : "潘友详 13595517339"
  ? !ruby/symbol geo_id
  : 304
  ? !ruby/symbol intro
  : ~
  ? !ruby/symbol latitude
  : "25.8001094"
  ? !ruby/symbol longitude
  : "108.9424638"
  ? !ruby/symbol name
  : 黔东南州从江县高增乡芭扒小学
  ? !ruby/symbol old_id
  : 290
- 
  ? !ruby/symbol address
  : 贵州省黔东南州从江县高增乡小黄村
  ? !ruby/symbol contact
  : "潘学光 13985831830"
  ? !ruby/symbol geo_id
  : 304
  ? !ruby/symbol intro
  : ~
  ? !ruby/symbol latitude
  : "25.8001094"
  ? !ruby/symbol longitude
  : "108.9424638"
  ? !ruby/symbol name
  : 黔东南州从江县高增乡小黄村小黄小学
  ? !ruby/symbol old_id
  : 291
- 
  ? !ruby/symbol address
  : 贵州省黔东南州从江县高增乡银良村
  ? !ruby/symbol contact
  : "吴回国 13595547460"
  ? !ruby/symbol geo_id
  : 304
  ? !ruby/symbol intro
  : ~
  ? !ruby/symbol latitude
  : "25.8001094"
  ? !ruby/symbol longitude
  : "108.9424638"
  ? !ruby/symbol name
  : 黔东南州从江县高增乡银良村银良小学
  ? !ruby/symbol old_id
  : 292
- 
  ? !ruby/symbol address
  : 贵州省黔东南州从江县高增乡高增小学
  ? !ruby/symbol contact
  : "杨秀怀 13638057631"
  ? !ruby/symbol geo_id
  : 304
  ? !ruby/symbol intro
  : ~
  ? !ruby/symbol latitude
  : "25.8001094"
  ? !ruby/symbol longitude
  : "108.9424638"
  ? !ruby/symbol name
  : 黔东南州从江县高增乡中心小学
  ? !ruby/symbol old_id
  : 293
- 
  ? !ruby/symbol address
  : 贵州省黔东南州从江县秀塘乡打格小学
  ? !ruby/symbol contact
  : "袁荣相 0778-8988516"
  ? !ruby/symbol geo_id
  : 304
  ? !ruby/symbol intro
  : ~
  ? !ruby/symbol latitude
  : "25.4799269"
  ? !ruby/symbol longitude
  : "108.5525426"
  ? !ruby/symbol name
  : 黔东南州从江县秀塘乡打格小学
  ? !ruby/symbol old_id
  : 294
- 
  ? !ruby/symbol address
  : 云南省丽江市永胜县永北镇大厂柳树塘徐家村
  ? !ruby/symbol contact
  : "徐老师 无"
  ? !ruby/symbol geo_id
  : 312
  ? !ruby/symbol intro
  : ~
  ? !ruby/symbol latitude
  : "26.6843501"
  ? !ruby/symbol longitude
  : "100.7511318"
  ? !ruby/symbol name
  : 丽江市永胜县永北镇大厂柳树塘徐家村柳树塘小学
  ? !ruby/symbol old_id
  : 295
- 
  ? !ruby/symbol address
  : 黔东南州从江县雍里乡龙江小学
  ? !ruby/symbol contact
  : "石全忠 0855-6931255"
  ? !ruby/symbol geo_id
  : 304
  ? !ruby/symbol intro
  : ~
  ? !ruby/symbol latitude
  : "25.731251085123894"
  ? !ruby/symbol longitude
  : "108.80619049072266"
  ? !ruby/symbol name
  : 从江县雍里乡龙江小学
  ? !ruby/symbol old_id
  : 296
- 
  ? !ruby/symbol address
  : 贵州省黔东南州从江县雍里乡大洞村
  ? !ruby/symbol contact
  : "杨兆生 13765580736"
  ? !ruby/symbol geo_id
  : 304
  ? !ruby/symbol intro
  : ~
  ? !ruby/symbol latitude
  : "25.6541253"
  ? !ruby/symbol longitude
  : "108.8346596"
  ? !ruby/symbol name
  : 黔东南州从江县雍里乡大洞村大洞小学
  ? !ruby/symbol old_id
  : 297
- 
  ? !ruby/symbol address
  : 云南省怒江州贡山县比毕里小学
  ? !ruby/symbol contact
  : "丰志生 13988633422"
  ? !ruby/symbol geo_id
  : 321
  ? !ruby/symbol intro
  : ~
  ? !ruby/symbol latitude
  : "27.7407357"
  ? !ruby/symbol longitude
  : "98.6658204"
  ? !ruby/symbol name
  : 怒江州贡山县比毕里小学
  ? !ruby/symbol old_id
  : 298
- 
  ? !ruby/symbol address
  : 贵州省黔东南州从江县雍里乡两料小学
  ? !ruby/symbol contact
  : "杨兆生 13765580736"
  ? !ruby/symbol geo_id
  : 304
  ? !ruby/symbol intro
  : ~
  ? !ruby/symbol latitude
  : "25.6541253"
  ? !ruby/symbol longitude
  : "108.8346596"
  ? !ruby/symbol name
  : 黔东南州从江县雍里乡两料小学
  ? !ruby/symbol old_id
  : 299
- 
  ? !ruby/symbol address
  : 横县平朗乡宝鼎村侨心小学
  ? !ruby/symbol contact
  : "玉德华  前来者可以与国际行动援助横县办公室联系 "
  ? !ruby/symbol geo_id
  : 239
  ? !ruby/symbol intro
  : ~
  ? !ruby/symbol latitude
  : "22.6758158"
  ? !ruby/symbol longitude
  : "108.9010324"
  ? !ruby/symbol name
  : 宝鼎侨心小学
  ? !ruby/symbol old_id
  : 300
- 
  ? !ruby/symbol address
  : 贵州省黔东南州从江县雍里乡大洞村
  ? !ruby/symbol contact
  : "杨兆生 13765580736"
  ? !ruby/symbol geo_id
  : 304
  ? !ruby/symbol intro
  : ~
  ? !ruby/symbol latitude
  : "25.6541253"
  ? !ruby/symbol longitude
  : "108.8346596"
  ? !ruby/symbol name
  : 黔东南州从江县雍里乡大洞村大洞中学
  ? !ruby/symbol old_id
  : 301
- 
  ? !ruby/symbol address
  : 绵阳市北川羌族自治县开坪乡麂子坪村
  ? !ruby/symbol contact
  : "焦云富 08164751344"
  ? !ruby/symbol geo_id
  : 280
  ? !ruby/symbol intro
  : ~
  ? !ruby/symbol latitude
  : "31.9393231"
  ? !ruby/symbol longitude
  : "104.2721675"
  ? !ruby/symbol name
  : 绵阳市北川羌族自治县开坪乡麂子坪村开坪小学
  ? !ruby/symbol old_id
  : 302
- 
  ? !ruby/symbol address
  : 贞丰县平街乡营盘村营盘组
  ? !ruby/symbol contact
  : "余仕江 08596855325"
  ? !ruby/symbol geo_id
  : 303
  ? !ruby/symbol intro
  : ~
  ? !ruby/symbol latitude
  : "25.6359213"
  ? !ruby/symbol longitude
  : "105.5621286"
  ? !ruby/symbol name
  : 黔西南州贞丰县平街乡营盘民小
  ? !ruby/symbol old_id
  : 303
- 
  ? !ruby/symbol address
  : 吉安市青原区新圩镇田北村
  ? !ruby/symbol contact
  : "李忠汪 0796-8685401"
  ? !ruby/symbol geo_id
  : 142
  ? !ruby/symbol intro
  : ~
  ? !ruby/symbol latitude
  : "26.9050560"
  ? !ruby/symbol longitude
  : "115.1351235"
  ? !ruby/symbol name
  : 吉安市青原区新圩镇田北小学
  ? !ruby/symbol old_id
  : 304
- 
  ? !ruby/symbol address
  : 贵州省黔东南州从江县雍里乡雍里中心小学
  ? !ruby/symbol contact
  : "孟繁荣 13379636425"
  ? !ruby/symbol geo_id
  : 304
  ? !ruby/symbol intro
  : ~
  ? !ruby/symbol latitude
  : "25.6541253"
  ? !ruby/symbol longitude
  : "108.8346596"
  ? !ruby/symbol name
  : 黔东南州从江县雍里乡雍里中心小学
  ? !ruby/symbol old_id
  : 305
- 
  ? !ruby/symbol address
  : 从江县谷坪乡银下村
  ? !ruby/symbol contact
  : "张继康 13595566094（家） 15985575244"
  ? !ruby/symbol geo_id
  : 304
  ? !ruby/symbol intro
  : ~
  ? !ruby/symbol latitude
  : "25.8874785"
  ? !ruby/symbol longitude
  : "108.8534212"
  ? !ruby/symbol name
  : 银潭小学
  ? !ruby/symbol old_id
  : 306
- 
  ? !ruby/symbol address
  : 贵州省黔东南州从江县高增乡占里村
  ? !ruby/symbol contact
  : "梁作宏 13595567286"
  ? !ruby/symbol geo_id
  : 304
  ? !ruby/symbol intro
  : ~
  ? !ruby/symbol latitude
  : "25.8001094"
  ? !ruby/symbol longitude
  : "108.9424638"
  ? !ruby/symbol name
  : 黔东南州从江县高增乡占里村占里小学
  ? !ruby/symbol old_id
  : 307
- 
  ? !ruby/symbol address
  : 盐源县前所乡中村（里达村）
  ? !ruby/symbol contact
  : "杨家宾玛次尔 13508882715"
  ? !ruby/symbol geo_id
  : 295
  ? !ruby/symbol intro
  : ~
  ? !ruby/symbol latitude
  : "27.8224578"
  ? !ruby/symbol longitude
  : "100.7787127"
  ? !ruby/symbol name
  : 前所乡中村爱心小学
  ? !ruby/symbol old_id
  : 308
- 
  ? !ruby/symbol address
  : 龙泉驿区柏合镇黎明1队（新龙中旁边）
  ? !ruby/symbol contact
  : "刘万钧 13330999236"
  ? !ruby/symbol geo_id
  : 275
  ? !ruby/symbol intro
  : ~
  ? !ruby/symbol latitude
  : "30.5049030"
  ? !ruby/symbol longitude
  : "104.2054336"
  ? !ruby/symbol name
  : 成都市龙泉驿区柏合镇海军希望小学
  ? !ruby/symbol old_id
  : 309
- 
  ? !ruby/symbol address
  : 元阳县牛角寨乡中心小学
  ? !ruby/symbol contact
  : "李子民 13887347571"
  ? !ruby/symbol geo_id
  : 316
  ? !ruby/symbol intro
  : ~
  ? !ruby/symbol latitude
  : "23.3591210"
  ? !ruby/symbol longitude
  : "103.1600340"
  ? !ruby/symbol name
  : 牛角寨乡中心小学
  ? !ruby/symbol old_id
  : 310
- 
  ? !ruby/symbol address
  : 重庆市潼南县古溪镇飞跃八村
  ? !ruby/symbol contact
  : "萧长义 15923398466"
  ? !ruby/symbol geo_id
  : 273
  ? !ruby/symbol intro
  : ~
  ? !ruby/symbol latitude
  : "30.3289810"
  ? !ruby/symbol longitude
  : "105.8757260"
  ? !ruby/symbol name
  : 潼南县古溪镇飞跃八村小学
  ? !ruby/symbol old_id
  : 311
- 
  ? !ruby/symbol address
  : 重庆市巴南区渝涪路
  ? !ruby/symbol contact
  : "胡主任 66241762"
  ? !ruby/symbol geo_id
  : 273
  ? !ruby/symbol intro
  : ~
  ? !ruby/symbol latitude
  : "29.5549144"
  ? !ruby/symbol longitude
  : "106.5484250"
  ? !ruby/symbol name
  : 渝涪路中学
  ? !ruby/symbol old_id
  : 312
- 
  ? !ruby/symbol address
  : 云南省丽江市玉龙纳西自治县
  ? !ruby/symbol contact
  : "李近群 13988879531"
  ? !ruby/symbol geo_id
  : 312
  ? !ruby/symbol intro
  : ~
  ? !ruby/symbol latitude
  : "27.4818599"
  ? !ruby/symbol longitude
  : "99.5620463"
  ? !ruby/symbol name
  : 丽江市玉龙县玉湖完小
  ? !ruby/symbol old_id
  : 313
- 
  ? !ruby/symbol address
  : 丽江市玉龙纳西自治县龙蟠行政村
  ? !ruby/symbol contact
  : "丁校长 13688874461"
  ? !ruby/symbol geo_id
  : 312
  ? !ruby/symbol intro
  : ~
  ? !ruby/symbol latitude
  : "27.4818599"
  ? !ruby/symbol longitude
  : "99.5620463"
  ? !ruby/symbol name
  : 丽江市玉龙纳西自治县龙蟠完小
  ? !ruby/symbol old_id
  : 314
- 
  ? !ruby/symbol address
  : 云南省丽江市玉龙纳西族自治县拉市乡海南行政村
  ? !ruby/symbol contact
  : " "
  ? !ruby/symbol geo_id
  : 312
  ? !ruby/symbol intro
  : ~
  ? !ruby/symbol latitude
  : "26.8484489"
  ? !ruby/symbol longitude
  : "100.1479714"
  ? !ruby/symbol name
  : 丽江市玉龙纳西族自治县拉市乡海南行政村海南完小
  ? !ruby/symbol old_id
  : 315
- 
  ? !ruby/symbol address
  : 玉龙县拉市乡吉余前村小学（村小）
  ? !ruby/symbol contact
  : "朱江龙 13988816220"
  ? !ruby/symbol geo_id
  : 312
  ? !ruby/symbol intro
  : ~
  ? !ruby/symbol latitude
  : "26.8484489"
  ? !ruby/symbol longitude
  : "100.1479714"
  ? !ruby/symbol name
  : 吉余前村小学
  ? !ruby/symbol old_id
  : 316
- 
  ? !ruby/symbol address
  : 丽江市玉龙县拉市乡余乐自然村
  ? !ruby/symbol contact
  : "杨迷红 13988849164"
  ? !ruby/symbol geo_id
  : 312
  ? !ruby/symbol intro
  : ~
  ? !ruby/symbol latitude
  : "26.8484489"
  ? !ruby/symbol longitude
  : "100.1479714"
  ? !ruby/symbol name
  : 丽江市区玉龙县拉市乡余乐小学
  ? !ruby/symbol old_id
  : 317
- 
  ? !ruby/symbol address
  : 沾益县大坡乡岩竹村委会
  ? !ruby/symbol contact
  : "校长 （0874）3021017"
  ? !ruby/symbol geo_id
  : 308
  ? !ruby/symbol intro
  : ~
  ? !ruby/symbol latitude
  : "25.8979852"
  ? !ruby/symbol longitude
  : "104.1784419"
  ? !ruby/symbol name
  : 岩（ai）竹小学
  ? !ruby/symbol old_id
  : 318
- 
  ? !ruby/symbol address
  : 云南省曲靖市师宗县五龙乡平寨完小
  ? !ruby/symbol contact
  : "董天佑 13577459523"
  ? !ruby/symbol geo_id
  : 308
  ? !ruby/symbol intro
  : ~
  ? !ruby/symbol latitude
  : "24.51307860341973"
  ? !ruby/symbol longitude
  : "104.38385009765625"
  ? !ruby/symbol name
  : 平寨完全小学
  ? !ruby/symbol old_id
  : 319
- 
  ? !ruby/symbol address
  : 黎平县肇兴乡信洞村
  ? !ruby/symbol contact
  : "陆成英 13765509958"
  ? !ruby/symbol geo_id
  : 304
  ? !ruby/symbol intro
  : ~
  ? !ruby/symbol latitude
  : "25.9058589"
  ? !ruby/symbol longitude
  : "109.1812236"
  ? !ruby/symbol name
  : 信洞小学
  ? !ruby/symbol old_id
  : 320
- 
  ? !ruby/symbol address
  : 贵州省黔东南州黎平县永从乡管团村
  ? !ruby/symbol contact
  : "吴远凡 0855-6052104（家）"
  ? !ruby/symbol geo_id
  : 304
  ? !ruby/symbol intro
  : ~
  ? !ruby/symbol latitude
  : "26.0419960"
  ? !ruby/symbol longitude
  : "109.1371850"
  ? !ruby/symbol name
  : 黔东南州黎平县永从乡管团村管团小学
  ? !ruby/symbol old_id
  : 321
- 
  ? !ruby/symbol address
  : 黔东南州黎平县永从乡顿洞村
  ? !ruby/symbol contact
  : "黄世勇 13885572495"
  ? !ruby/symbol geo_id
  : 304
  ? !ruby/symbol intro
  : ~
  ? !ruby/symbol latitude
  : "26.0419960"
  ? !ruby/symbol longitude
  : "109.1371850"
  ? !ruby/symbol name
  : 黔东南州黎平县永从乡顿洞小学
  ? !ruby/symbol old_id
  : 322
- 
  ? !ruby/symbol address
  : 云南省文山州丘北县曰者镇新寨村民委塘房村
  ? !ruby/symbol contact
  : "叶家林 0876——4876118"
  ? !ruby/symbol geo_id
  : 315
  ? !ruby/symbol intro
  : ~
  ? !ruby/symbol latitude
  : "24.0419190"
  ? !ruby/symbol longitude
  : "104.1958200"
  ? !ruby/symbol name
  : 文山州丘北县曰者镇新寨村民委塘房村塘房小学
  ? !ruby/symbol old_id
  : 323
- 
  ? !ruby/symbol address
  : 云南省丽江地区宁蒗彝族自治县下属烂泥箐乡
  ? !ruby/symbol contact
  : " "
  ? !ruby/symbol geo_id
  : 312
  ? !ruby/symbol intro
  : ~
  ? !ruby/symbol latitude
  : "27.108033801463115"
  ? !ruby/symbol longitude
  : "99.60205078125"
  ? !ruby/symbol name
  : 丽江地区宁蒗彝族自治县大拉坝完小
  ? !ruby/symbol old_id
  : 325
- 
  ? !ruby/symbol address
  : 广西百色市那坡县德隆乡德孚村岩北屯
  ? !ruby/symbol contact
  : "覃国章 13707764513"
  ? !ruby/symbol geo_id
  : 248
  ? !ruby/symbol intro
  : ~
  ? !ruby/symbol latitude
  : "23.2796606"
  ? !ruby/symbol longitude
  : "105.8443640"
  ? !ruby/symbol name
  : 百色市那坡县德隆乡德孚村完小
  ? !ruby/symbol old_id
  : 326
- 
  ? !ruby/symbol address
  : 贵州省惠水县打引民族小学
  ? !ruby/symbol contact
  : "梁校长 13595473164"
  ? !ruby/symbol geo_id
  : 305
  ? !ruby/symbol intro
  : ~
  ? !ruby/symbol latitude
  : "25.9654915"
  ? !ruby/symbol longitude
  : "106.7358470"
  ? !ruby/symbol name
  : 黔南州惠水县打引民族小学
  ? !ruby/symbol old_id
  : 327
- 
  ? !ruby/symbol address
  : 贵州威宁县石门乡高潮小学
  ? !ruby/symbol contact
  : "何荣军 13691988465"
  ? !ruby/symbol geo_id
  : 302
  ? !ruby/symbol intro
  : ""
  ? !ruby/symbol latitude
  : "27.3597558"
  ? !ruby/symbol longitude
  : "103.9496680"
  ? !ruby/symbol name
  : 毕节地区威宁县石门乡高潮小学
  ? !ruby/symbol old_id
  : 328
- 
  ? !ruby/symbol address
  : 黔东南州锦屏县河口乡韶霭村
  ? !ruby/symbol contact
  : "校长 13595515098"
  ? !ruby/symbol geo_id
  : 304
  ? !ruby/symbol intro
  : ~
  ? !ruby/symbol latitude
  : "26.5539630"
  ? !ruby/symbol longitude
  : "108.9300330"
  ? !ruby/symbol name
  : "黔东南州锦屏县河口乡韶霭小学                               "
  ? !ruby/symbol old_id
  : 329
- 
  ? !ruby/symbol address
  : 云南省红河州弥勒县竹园镇者甸村
  ? !ruby/symbol contact
  : "陈新华 13769464628"
  ? !ruby/symbol geo_id
  : 316
  ? !ruby/symbol intro
  : ~
  ? !ruby/symbol latitude
  : "24.1071307"
  ? !ruby/symbol longitude
  : "103.4188360"
  ? !ruby/symbol name
  : 红河州弥勒县竹园镇者甸小学
  ? !ruby/symbol old_id
  : 330
- 
  ? !ruby/symbol address
  : 建德市寿昌镇童家村童家小学
  ? !ruby/symbol contact
  : "离离古语 "
  ? !ruby/symbol geo_id
  : 95
  ? !ruby/symbol intro
  : ~
  ? !ruby/symbol latitude
  : "29.418479133197195"
  ? !ruby/symbol longitude
  : "119.17080402374268"
  ? !ruby/symbol name
  : 建德市寿昌镇童家村童家小学
  ? !ruby/symbol old_id
  : 331
- 
  ? !ruby/symbol address
  : 四川省甘孜州德格县更庆寺福利学校
  ? !ruby/symbol contact
  : "伍金多吉 (家庭/办公)电话： 0836-8222109 ，手机：13558515266，0836-8638523"
  ? !ruby/symbol geo_id
  : 294
  ? !ruby/symbol intro
  : ~
  ? !ruby/symbol latitude
  : "31.8061203"
  ? !ruby/symbol longitude
  : "98.5809124"
  ? !ruby/symbol name
  : 甘孜州德格县更庆寺福利学校
  ? !ruby/symbol old_id
  : 332
- 
  ? !ruby/symbol address
  : 贵州省黔东南州黎平县坝寨乡洋寨村
  ? !ruby/symbol contact
  : "杨正英 13765560867"
  ? !ruby/symbol geo_id
  : 304
  ? !ruby/symbol intro
  : ~
  ? !ruby/symbol latitude
  : "26.2303720"
  ? !ruby/symbol longitude
  : "109.1367500"
  ? !ruby/symbol name
  : 黔东南州黎平县坝寨乡高西小学
  ? !ruby/symbol old_id
  : 333
- 
  ? !ruby/symbol address
  : 贵州省黔东南州黎平县坝寨乡器寨村
  ? !ruby/symbol contact
  : "左宗仁 0855-6091239"
  ? !ruby/symbol geo_id
  : 304
  ? !ruby/symbol intro
  : ~
  ? !ruby/symbol latitude
  : "26.2303720"
  ? !ruby/symbol longitude
  : "109.1367500"
  ? !ruby/symbol name
  : 黔东南州黎平县坝寨乡器寨小学
  ? !ruby/symbol old_id
  : 334
- 
  ? !ruby/symbol address
  : 贵州省黔东南州黎平县毛贡乡流芳村
  ? !ruby/symbol contact
  : "石庆远 13885567706"
  ? !ruby/symbol geo_id
  : 304
  ? !ruby/symbol intro
  : ~
  ? !ruby/symbol latitude
  : "26.2303720"
  ? !ruby/symbol longitude
  : "109.1367500"
  ? !ruby/symbol name
  : 黔东南州黎平县毛贡乡流芳小学
  ? !ruby/symbol old_id
  : 335
- 
  ? !ruby/symbol address
  : 贵州省黔东南州黎平县茅贡乡地扪村
  ? !ruby/symbol contact
  : "吴世春 0855-6270087"
  ? !ruby/symbol geo_id
  : 304
  ? !ruby/symbol intro
  : ~
  ? !ruby/symbol latitude
  : "26.2288510"
  ? !ruby/symbol longitude
  : "109.1387690"
  ? !ruby/symbol name
  : 黔东南州黎平县茅贡乡地扪小学
  ? !ruby/symbol old_id
  : 336
- 
  ? !ruby/symbol address
  : 贵州省黔东南州黎平县茅贡乡腊洞村
  ? !ruby/symbol contact
  : "吴显明 13765529361"
  ? !ruby/symbol geo_id
  : 304
  ? !ruby/symbol intro
  : ~
  ? !ruby/symbol latitude
  : "26.2288510"
  ? !ruby/symbol longitude
  : "109.1387690"
  ? !ruby/symbol name
  : 黔东南州黎平县茅贡乡腊洞小学
  ? !ruby/symbol old_id
  : 337
- 
  ? !ruby/symbol address
  : 贵州省黔东南州黎平县九潮镇大榕村
  ? !ruby/symbol contact
  : "吴庆谦 15808552409"
  ? !ruby/symbol geo_id
  : 304
  ? !ruby/symbol intro
  : ~
  ? !ruby/symbol latitude
  : "26.0914706"
  ? !ruby/symbol longitude
  : "108.7692129"
  ? !ruby/symbol name
  : 黔东南州黎平县九潮镇大榕小学
  ? !ruby/symbol old_id
  : 338
- 
  ? !ruby/symbol address
  : 贵州省黔东南州黎平县九潮镇罗伍村
  ? !ruby/symbol contact
  : "石基胜 15985577375"
  ? !ruby/symbol geo_id
  : 304
  ? !ruby/symbol intro
  : ~
  ? !ruby/symbol latitude
  : "26.0914706"
  ? !ruby/symbol longitude
  : "108.7692129"
  ? !ruby/symbol name
  : 黔东南州黎平县九潮镇罗伍小学
  ? !ruby/symbol old_id
  : 339
- 
  ? !ruby/symbol address
  : 英德市黃花鎮德崗小學
  ? !ruby/symbol contact
  : "黎桂芳老師 0138 2852 3609"
  ? !ruby/symbol geo_id
  : 232
  ? !ruby/symbol intro
  : ~
  ? !ruby/symbol latitude
  : "24.191858272317656"
  ? !ruby/symbol longitude
  : "112.91748046875"
  ? !ruby/symbol name
  : 英德市黃花鎮德崗小學
  ? !ruby/symbol old_id
  : 340
- 
  ? !ruby/symbol address
  : 英德市九龍鎮新田小學
  ? !ruby/symbol contact
  : "羅老師 0134 1652 2998"
  ? !ruby/symbol geo_id
  : 232
  ? !ruby/symbol intro
  : ~
  ? !ruby/symbol latitude
  : "24.14048779624122"
  ? !ruby/symbol longitude
  : "112.92160034179688"
  ? !ruby/symbol name
  : 英德市九龍鎮新田小學
  ? !ruby/symbol old_id
  : 341
- 
  ? !ruby/symbol address
  : 大埔縣三河鎮梓裡村梓裡小學
  ? !ruby/symbol contact
  : "陳維光校長 0135 4323 6139 "
  ? !ruby/symbol geo_id
  : 228
  ? !ruby/symbol intro
  : ~
  ? !ruby/symbol latitude
  : "24.436366443189264"
  ? !ruby/symbol longitude
  : "116.51691913604736"
  ? !ruby/symbol name
  : 梅州市大埔縣三河鎮梓裡村梓裡小學
  ? !ruby/symbol old_id
  : 342
- 
  ? !ruby/symbol address
  : 永定縣初溪村初溪小學
  ? !ruby/symbol contact
  : "張艳太校長 (0)133 0697 1080"
  ? !ruby/symbol geo_id
  : 132
  ? !ruby/symbol intro
  : ~
  ? !ruby/symbol latitude
  : "25.1006010"
  ? !ruby/symbol longitude
  : "117.0341920"
  ? !ruby/symbol name
  : 龙岩市永定縣初溪村初溪小學
  ? !ruby/symbol old_id
  : 343
- 
  ? !ruby/symbol address
  : 连南瑶族自治县大麦山镇九寨小学
  ? !ruby/symbol contact
  : "房校长 0136 2059 6448"
  ? !ruby/symbol geo_id
  : 232
  ? !ruby/symbol intro
  : ~
  ? !ruby/symbol latitude
  : "24.4987703"
  ? !ruby/symbol longitude
  : "112.2803681"
  ? !ruby/symbol name
  : 九寨小学
  ? !ruby/symbol old_id
  : 344
- 
  ? !ruby/symbol address
  : 连南瑶族自治县大麦山镇后洞小学
  ? !ruby/symbol contact
  : "房校长 0134 3528 6683"
  ? !ruby/symbol geo_id
  : 232
  ? !ruby/symbol intro
  : ~
  ? !ruby/symbol latitude
  : "24.4987703"
  ? !ruby/symbol longitude
  : "112.2803681"
  ? !ruby/symbol name
  : 后洞小学
  ? !ruby/symbol old_id
  : 345
- 
  ? !ruby/symbol address
  : 连南瑶族自治县大麦山镇塘梨坑小学
  ? !ruby/symbol contact
  : "房校长 13620596448  "
  ? !ruby/symbol geo_id
  : 232
  ? !ruby/symbol intro
  : ~
  ? !ruby/symbol latitude
  : "24.4987703"
  ? !ruby/symbol longitude
  : "112.2803681"
  ? !ruby/symbol name
  : 塘梨坑小学
  ? !ruby/symbol old_id
  : 346
- 
  ? !ruby/symbol address
  : 大埔县大东鎮泮溪村中心小学
  ? !ruby/symbol contact
  : "林校長 0753-5711 009"
  ? !ruby/symbol geo_id
  : 228
  ? !ruby/symbol intro
  : ~
  ? !ruby/symbol latitude
  : "24.29719692560521"
  ? !ruby/symbol longitude
  : "116.88740730285644"
  ? !ruby/symbol name
  : 梅州市大埔县大东镇泮溪村中心小学
  ? !ruby/symbol old_id
  : 347
- 
  ? !ruby/symbol address
  : 大埔县大东镇家荣村家荣小学
  ? !ruby/symbol contact
  : "刘正煌 0135 3918 1085"
  ? !ruby/symbol geo_id
  : 228
  ? !ruby/symbol intro
  : ~
  ? !ruby/symbol latitude
  : "24.33728249098883"
  ? !ruby/symbol longitude
  : "116.88998222351074"
  ? !ruby/symbol name
  : 大埔县大东镇家荣村家荣小学
  ? !ruby/symbol old_id
  : 348
- 
  ? !ruby/symbol address
  : 宣威市海岱镇文阁村
  ? !ruby/symbol contact
  : "徐华良 －－"
  ? !ruby/symbol geo_id
  : 308
  ? !ruby/symbol intro
  : ~
  ? !ruby/symbol latitude
  : "25.9812154"
  ? !ruby/symbol longitude
  : "103.6836547"
  ? !ruby/symbol name
  : 宣威市海岱镇文阁村完小
  ? !ruby/symbol old_id
  : 349
- 
  ? !ruby/symbol address
  : 云南省丽江市玉龙县黎明乡村委会黎明村
  ? !ruby/symbol contact
  : "余占军 13578389891"
  ? !ruby/symbol geo_id
  : 312
  ? !ruby/symbol intro
  : ~
  ? !ruby/symbol latitude
  : "27.0235687"
  ? !ruby/symbol longitude
  : "99.6721936"
  ? !ruby/symbol name
  : 丽江市玉龙县黎明乡云旅希望小学
  ? !ruby/symbol old_id
  : 350
- 
  ? !ruby/symbol address
  : 甘肃省金钟镇大车场东州春蕾小学
  ? !ruby/symbol contact
  : "汪想军 13309322935"
  ? !ruby/symbol geo_id
  : 353
  ? !ruby/symbol intro
  : ~
  ? !ruby/symbol latitude
  : "34.8083999"
  ? !ruby/symbol longitude
  : "104.1486930"
  ? !ruby/symbol name
  : 定西市漳县金钟镇大车场东州春蕾小学
  ? !ruby/symbol old_id
  : 351
- 
  ? !ruby/symbol address
  : 甘肃省漳县金钟镇白家沟小学
  ? !ruby/symbol contact
  : "卢树强 13629328155"
  ? !ruby/symbol geo_id
  : 353
  ? !ruby/symbol intro
  : ~
  ? !ruby/symbol latitude
  : "34.8083999"
  ? !ruby/symbol longitude
  : "104.1486930"
  ? !ruby/symbol name
  : 定西市漳县金钟镇白家沟小学
  ? !ruby/symbol old_id
  : 352
- 
  ? !ruby/symbol address
  : 甘肃省漳县金钟斜坡希望小学
  ? !ruby/symbol contact
  : "侯新民 15809323831"
  ? !ruby/symbol geo_id
  : 353
  ? !ruby/symbol intro
  : ~
  ? !ruby/symbol latitude
  : "34.8485532"
  ? !ruby/symbol longitude
  : "104.4716192"
  ? !ruby/symbol name
  : 定西市漳县金钟斜坡希望小学
  ? !ruby/symbol old_id
  : 353
- 
  ? !ruby/symbol address
  : 云南省丽江市玉龙县巨甸镇阿乐村
  ? !ruby/symbol contact
  : "王文武 13988819477"
  ? !ruby/symbol geo_id
  : 312
  ? !ruby/symbol intro
  : ~
  ? !ruby/symbol latitude
  : "27.2992475"
  ? !ruby/symbol longitude
  : "99.6521808"
  ? !ruby/symbol name
  : 丽江市玉龙县巨甸镇阿乐村完小
  ? !ruby/symbol old_id
  : 354
- 
  ? !ruby/symbol address
  : 云南省楚雄州武定县高桥镇小河村
  ? !ruby/symbol contact
  : "风清明 0878-8823106"
  ? !ruby/symbol geo_id
  : 318
  ? !ruby/symbol intro
  : ~
  ? !ruby/symbol latitude
  : "25.6038365"
  ? !ruby/symbol longitude
  : "102.1924238"
  ? !ruby/symbol name
  : 楚雄州武定县高桥镇小河村庄房小学
  ? !ruby/symbol old_id
  : 355
- 
  ? !ruby/symbol address
  : 楚雄州牟定县江坡镇普家村
  ? !ruby/symbol contact
  : "王天明 无"
  ? !ruby/symbol geo_id
  : 318
  ? !ruby/symbol intro
  : ~
  ? !ruby/symbol latitude
  : "25.2666986"
  ? !ruby/symbol longitude
  : "101.6229036"
  ? !ruby/symbol name
  : 楚雄州牟定县江坡镇普家村完小
  ? !ruby/symbol old_id
  : 356
- 
  ? !ruby/symbol address
  : 丽江市玉龙县太安乡吾竹比村
  ? !ruby/symbol contact
  : "和万珠 13987040981"
  ? !ruby/symbol geo_id
  : 312
  ? !ruby/symbol intro
  : ~
  ? !ruby/symbol latitude
  : "26.7788650"
  ? !ruby/symbol longitude
  : "100.0839880"
  ? !ruby/symbol name
  : 丽江市玉龙县太安乡吾竹比完小
  ? !ruby/symbol old_id
  : 357
- 
  ? !ruby/symbol address
  : 昆明市寻甸回族自治县河口乡白石岩村
  ? !ruby/symbol contact
  : "李春徳 0871-2780484"
  ? !ruby/symbol geo_id
  : 307
  ? !ruby/symbol intro
  : ~
  ? !ruby/symbol latitude
  : "25.5581860"
  ? !ruby/symbol longitude
  : "103.2565360"
  ? !ruby/symbol name
  : 寻甸回族自治县河口乡白石岩村龙集小学
  ? !ruby/symbol old_id
  : 358
- 
  ? !ruby/symbol address
  : 大理州弥渡县德苴乡金星村
  ? !ruby/symbol contact
  : "禹行 0872—8385906"
  ? !ruby/symbol geo_id
  : 319
  ? !ruby/symbol intro
  : ~
  ? !ruby/symbol latitude
  : "25.1164710"
  ? !ruby/symbol longitude
  : "100.6558775"
  ? !ruby/symbol name
  : 大理州弥渡县德苴乡金星村金星完小
  ? !ruby/symbol old_id
  : 359
- 
  ? !ruby/symbol address
  : 宣威市海岱镇顾湾村
  ? !ruby/symbol contact
  : "浦树芬 15887907119"
  ? !ruby/symbol geo_id
  : 308
  ? !ruby/symbol intro
  : ~
  ? !ruby/symbol latitude
  : "25.9812154"
  ? !ruby/symbol longitude
  : "103.6836547"
  ? !ruby/symbol name
  : 宣威市海岱镇顾湾村完小
  ? !ruby/symbol old_id
  : 360
- 
  ? !ruby/symbol address
  : 香格里拉县金江镇兴隆村
  ? !ruby/symbol contact
  : "龙明贵 13988788938"
  ? !ruby/symbol geo_id
  : 322
  ? !ruby/symbol intro
  : ~
  ? !ruby/symbol latitude
  : "27.274008540521457"
  ? !ruby/symbol longitude
  : "99.63483810424805"
  ? !ruby/symbol name
  : 迪庆州香格里拉县金江镇兴隆村红文小学
  ? !ruby/symbol old_id
  : 361
- 
  ? !ruby/symbol address
  : 楚雄州禄丰县和平镇小路溪
  ? !ruby/symbol contact
  : "陈丽玲 15987206797"
  ? !ruby/symbol geo_id
  : 318
  ? !ruby/symbol intro
  : ~
  ? !ruby/symbol latitude
  : "25.2053336"
  ? !ruby/symbol longitude
  : "102.1968450"
  ? !ruby/symbol name
  : 楚雄州禄丰县和平镇路溪小学
  ? !ruby/symbol old_id
  : 362
- 
  ? !ruby/symbol address
  : 霍城县惠远湟渠
  ? !ruby/symbol contact
  : "赵伊斌 13779101470"
  ? !ruby/symbol geo_id
  : 384
  ? !ruby/symbol intro
  : ~
  ? !ruby/symbol latitude
  : "37.4401011"
  ? !ruby/symbol longitude
  : "113.0582318"
  ? !ruby/symbol name
  : 伊犁哈萨克自治州霍城县惠远乡湟渠村小学
  ? !ruby/symbol old_id
  : 363
- 
  ? !ruby/symbol address
  : 宁蒗县永宁乡泸沽湖小落水永江希望小学
  ? !ruby/symbol contact
  : "何婧 13013381308"
  ? !ruby/symbol geo_id
  : 312
  ? !ruby/symbol intro
  : ~
  ? !ruby/symbol latitude
  : "27.8419197"
  ? !ruby/symbol longitude
  : "100.6950900"
  ? !ruby/symbol name
  : 小落水永江希望小学
  ? !ruby/symbol old_id
  : 364
- 
  ? !ruby/symbol address
  : 文山州丘北县曰者镇塘房村
  ? !ruby/symbol contact
  : "叶家林 ０８７６－４８７６１１８"
  ? !ruby/symbol geo_id
  : 315
  ? !ruby/symbol intro
  : ~
  ? !ruby/symbol latitude
  : "24.0419190"
  ? !ruby/symbol longitude
  : "104.1958200"
  ? !ruby/symbol name
  : 文山州丘北县曰者镇塘房村塘房小学
  ? !ruby/symbol old_id
  : 365
- 
  ? !ruby/symbol address
  : 云南省大理州大理市上关镇大把关公所大把关村
  ? !ruby/symbol contact
  : "杨鸿璋 15912270425"
  ? !ruby/symbol geo_id
  : 319
  ? !ruby/symbol intro
  : ~
  ? !ruby/symbol latitude
  : "25.9216091"
  ? !ruby/symbol longitude
  : "100.1010634"
  ? !ruby/symbol name
  : 大理州大理市上关镇大把关村小学
  ? !ruby/symbol old_id
  : 366
- 
  ? !ruby/symbol address
  : 云南省曲靖市会泽县上村乡
  ? !ruby/symbol contact
  : "李俊良 15887910650"
  ? !ruby/symbol geo_id
  : 308
  ? !ruby/symbol intro
  : ~
  ? !ruby/symbol latitude
  : "26.5498235"
  ? !ruby/symbol longitude
  : "103.1985348"
  ? !ruby/symbol name
  : 曲靖市会泽县上村乡爱明小学
  ? !ruby/symbol old_id
  : 367
- 
  ? !ruby/symbol address
  : 安徽省石台县七都镇龙田村
  ? !ruby/symbol contact
  : "叶军 15956611345"
  ? !ruby/symbol geo_id
  : 121
  ? !ruby/symbol intro
  : ~
  ? !ruby/symbol latitude
  : "30.2372770"
  ? !ruby/symbol longitude
  : "117.7791920"
  ? !ruby/symbol name
  : 池州市石台县六都阳光希望小学
  ? !ruby/symbol old_id
  : 368
- 
  ? !ruby/symbol address
  : 大理州大理市上关镇大把关村公所大把关村
  ? !ruby/symbol contact
  : "杨鸿璋 15912270425"
  ? !ruby/symbol geo_id
  : 319
  ? !ruby/symbol intro
  : ~
  ? !ruby/symbol latitude
  : "25.9216090"
  ? !ruby/symbol longitude
  : "100.1010630"
  ? !ruby/symbol name
  : 大把关村小学
  ? !ruby/symbol old_id
  : 369
- 
  ? !ruby/symbol address
  : 云南省曲靖市会泽县上村乡
  ? !ruby/symbol contact
  : "李俊良 15887910650"
  ? !ruby/symbol geo_id
  : 308
  ? !ruby/symbol intro
  : ~
  ? !ruby/symbol latitude
  : "26.5498235"
  ? !ruby/symbol longitude
  : "103.1985348"
  ? !ruby/symbol name
  : 曲靖市会泽县上村乡爱明小学
  ? !ruby/symbol old_id
  : 370
- 
  ? !ruby/symbol address
  : 庐山星子县温泉镇居委会
  ? !ruby/symbol contact
  : "朱伟金 13879266705"
  ? !ruby/symbol geo_id
  : 138
  ? !ruby/symbol intro
  : ~
  ? !ruby/symbol latitude
  : "29.4167969"
  ? !ruby/symbol longitude
  : "115.9273074"
  ? !ruby/symbol name
  : 九江市庐山区星子县温泉镇温泉希望小学
  ? !ruby/symbol old_id
  : 371
- 
  ? !ruby/symbol address
  : 那坡县德隆乡岩北屯
  ? !ruby/symbol contact
  : "覃国章 13707764513"
  ? !ruby/symbol geo_id
  : 248
  ? !ruby/symbol intro
  : ~
  ? !ruby/symbol latitude
  : "23.2796606"
  ? !ruby/symbol longitude
  : "105.8443640"
  ? !ruby/symbol name
  : 百色市那坡县德隆乡德孚村完小
  ? !ruby/symbol old_id
  : 372
- 
  ? !ruby/symbol address
  : 遂川县泉江镇新寨村
  ? !ruby/symbol contact
  : "周贻津 13879668835"
  ? !ruby/symbol geo_id
  : 142
  ? !ruby/symbol intro
  : ~
  ? !ruby/symbol latitude
  : "26.3352819"
  ? !ruby/symbol longitude
  : "114.5787920"
  ? !ruby/symbol name
  : 新寨希望小学
  ? !ruby/symbol old_id
  : 373
- 
  ? !ruby/symbol address
  : 吉安市遂川县堆子前
  ? !ruby/symbol contact
  : "黄海华 13576640932"
  ? !ruby/symbol geo_id
  : 142
  ? !ruby/symbol intro
  : ~
  ? !ruby/symbol latitude
  : "26.33788381271336"
  ? !ruby/symbol longitude
  : "114.29729461669922"
  ? !ruby/symbol name
  : 堆子前希望小学
  ? !ruby/symbol old_id
  : 374
- 
  ? !ruby/symbol address
  : 贵州省凯里市翁义开发区
  ? !ruby/symbol contact
  : "潘义军 13595544365"
  ? !ruby/symbol geo_id
  : 304
  ? !ruby/symbol intro
  : ~
  ? !ruby/symbol latitude
  : "26.5888844"
  ? !ruby/symbol longitude
  : "107.9771118"
  ? !ruby/symbol name
  : 黔东南州凯里市翁义小学
  ? !ruby/symbol old_id
  : 375
- 
  ? !ruby/symbol address
  : 贵州省凯里市鸭塘镇
  ? !ruby/symbol contact
  : "吴如广 13885544672"
  ? !ruby/symbol geo_id
  : 304
  ? !ruby/symbol intro
  : ~
  ? !ruby/symbol latitude
  : "26.5419501"
  ? !ruby/symbol longitude
  : "107.9206511"
  ? !ruby/symbol name
  : 黔东南州凯里市鸭塘镇鸭塘小学
  ? !ruby/symbol old_id
  : 376
- 
  ? !ruby/symbol address
  : 大方县达溪镇聚河村
  ? !ruby/symbol contact
  : "颜校长 15934755978"
  ? !ruby/symbol geo_id
  : 302
  ? !ruby/symbol intro
  : ~
  ? !ruby/symbol latitude
  : "27.3493400"
  ? !ruby/symbol longitude
  : "105.6703579"
  ? !ruby/symbol name
  : 毕节地区大方县达溪镇聚河小学
  ? !ruby/symbol old_id
  : 377
- 
  ? !ruby/symbol address
  : 大方县达溪镇雨沙小学
  ? !ruby/symbol contact
  : "陈校长 15985436692"
  ? !ruby/symbol geo_id
  : 302
  ? !ruby/symbol intro
  : ~
  ? !ruby/symbol latitude
  : "27.3493400"
  ? !ruby/symbol longitude
  : "105.6703579"
  ? !ruby/symbol name
  : 毕节地区大方县雨沙小学
  ? !ruby/symbol old_id
  : 378
- 
  ? !ruby/symbol address
  : 大方县达溪镇雨卷小学
  ? !ruby/symbol contact
  : "吴校长 13984768482"
  ? !ruby/symbol geo_id
  : 302
  ? !ruby/symbol intro
  : ~
  ? !ruby/symbol latitude
  : "27.3493400"
  ? !ruby/symbol longitude
  : "105.6703579"
  ? !ruby/symbol name
  : 毕节地区大方县雨卷小学
  ? !ruby/symbol old_id
  : 379
- 
  ? !ruby/symbol address
  : 甘肃省武威市古浪县
  ? !ruby/symbol contact
  : "张有武 13519469013"
  ? !ruby/symbol geo_id
  : 348
  ? !ruby/symbol intro
  : ~
  ? !ruby/symbol latitude
  : "37.4701890"
  ? !ruby/symbol longitude
  : "102.8975443"
  ? !ruby/symbol name
  : 武威市古浪县胡家窑完全小学
  ? !ruby/symbol old_id
  : 380
- 
  ? !ruby/symbol address
  : 巴里坤县八墙子乡
  ? !ruby/symbol contact
  : "木拉提 13209021879"
  ? !ruby/symbol geo_id
  : 376
  ? !ruby/symbol intro
  : ~
  ? !ruby/symbol latitude
  : "43.9078796"
  ? !ruby/symbol longitude
  : "93.2138953"
  ? !ruby/symbol name
  : 哈密地区巴里坤县八墙子乡中心校
  ? !ruby/symbol old_id
  : 381
- 
  ? !ruby/symbol address
  : 巴里坤县海子沿乡卡子湖村
  ? !ruby/symbol contact
  : "胡安西 13201065081"
  ? !ruby/symbol geo_id
  : 376
  ? !ruby/symbol intro
  : ~
  ? !ruby/symbol latitude
  : "43.5956705"
  ? !ruby/symbol longitude
  : "92.8064300"
  ? !ruby/symbol name
  : 哈密地区巴里坤县海子沿乡卡子湖小学
  ? !ruby/symbol old_id
  : 382
- 
  ? !ruby/symbol address
  : 新疆伊犁察布查尔锡伯自治县绰霍尔乡布占小学
  ? !ruby/symbol contact
  : "魏晓英 13109085785"
  ? !ruby/symbol geo_id
  : 384
  ? !ruby/symbol intro
  : ~
  ? !ruby/symbol latitude
  : "43.8697316"
  ? !ruby/symbol longitude
  : "81.1475822"
  ? !ruby/symbol name
  : 伊犁州察查尔锡伯自治县绰霍尔乡布占小学
  ? !ruby/symbol old_id
  : 383
- 
  ? !ruby/symbol address
  : 大红柳峡乡
  ? !ruby/symbol contact
  : "大红柳峡乡 13809906075"
  ? !ruby/symbol geo_id
  : 376
  ? !ruby/symbol intro
  : ~
  ? !ruby/symbol latitude
  : "44.1764132"
  ? !ruby/symbol longitude
  : "91.7406144"
  ? !ruby/symbol name
  : 哈密地区巴里坤哈萨克自治县大红柳峡中心校
  ? !ruby/symbol old_id
  : 384
- 
  ? !ruby/symbol address
  : 呼图壁县五工台镇五工台村
  ? !ruby/symbol contact
  : "王玲娟 13779276222"
  ? !ruby/symbol geo_id
  : 382
  ? !ruby/symbol intro
  : ~
  ? !ruby/symbol latitude
  : "44.1655180"
  ? !ruby/symbol longitude
  : "86.8152725"
  ? !ruby/symbol name
  : 昌吉州呼图壁县五工台镇小学
  ? !ruby/symbol old_id
  : 385
- 
  ? !ruby/symbol address
  : 疏勒县塔尕尔其乡5村3组
  ? !ruby/symbol contact
  : "亚森•米吉提 13579340332"
  ? !ruby/symbol geo_id
  : 379
  ? !ruby/symbol intro
  : ~
  ? !ruby/symbol latitude
  : "39.3192078"
  ? !ruby/symbol longitude
  : "76.4413837"
  ? !ruby/symbol name
  : 喀什地区疏勒县塔尕尔其乡恰克力克（5村）小学
  ? !ruby/symbol old_id
  : 386
- 
  ? !ruby/symbol address
  : 新疆昌吉州吉木萨尔县大有乡广泉村
  ? !ruby/symbol contact
  : "李文忠 13579622668"
  ? !ruby/symbol geo_id
  : 382
  ? !ruby/symbol intro
  : ~
  ? !ruby/symbol latitude
  : "43.8392974"
  ? !ruby/symbol longitude
  : "89.0586703"
  ? !ruby/symbol name
  : 昌吉州吉木萨尔县大有乡广泉回民小学
  ? !ruby/symbol old_id
  : 387
- 
  ? !ruby/symbol address
  : 巴里坤县下涝坝乡
  ? !ruby/symbol contact
  : "贾合甫别克 "
  ? !ruby/symbol geo_id
  : 376
  ? !ruby/symbol intro
  : ~
  ? !ruby/symbol latitude
  : "43.8110025"
  ? !ruby/symbol longitude
  : "91.6431135"
  ? !ruby/symbol name
  : 哈密地区巴里坤县下涝坝乡中心校
  ? !ruby/symbol old_id
  : 388
- 
  ? !ruby/symbol address
  : 甘肃省武威市古浪县
  ? !ruby/symbol contact
  : "张汉武 13519055808"
  ? !ruby/symbol geo_id
  : 348
  ? !ruby/symbol intro
  : ~
  ? !ruby/symbol latitude
  : "37.4701890"
  ? !ruby/symbol longitude
  : "102.8975443"
  ? !ruby/symbol name
  : 武威市古浪县下川小学
  ? !ruby/symbol old_id
  : 389
- 
  ? !ruby/symbol address
  : 甘肃省武威市古浪县冰草湾完全小学
  ? !ruby/symbol contact
  : "倪苍寿 13893523304"
  ? !ruby/symbol geo_id
  : 348
  ? !ruby/symbol intro
  : ~
  ? !ruby/symbol latitude
  : "37.4701890"
  ? !ruby/symbol longitude
  : "102.8975443"
  ? !ruby/symbol name
  : 武威市古浪县冰草湾完全小学
  ? !ruby/symbol old_id
  : 390
- 
  ? !ruby/symbol address
  : 贵州省务川县砚山镇石朝村南小学
  ? !ruby/symbol contact
  : "文立 0852—5586310"
  ? !ruby/symbol geo_id
  : 299
  ? !ruby/symbol intro
  : ~
  ? !ruby/symbol latitude
  : "28.8004282"
  ? !ruby/symbol longitude
  : "107.9000927"
  ? !ruby/symbol name
  : 遵义市务川县砚山镇石朝村南小学
  ? !ruby/symbol old_id
  : 391
- 
  ? !ruby/symbol address
  : 遵义市武川县砚山镇大桥小学
  ? !ruby/symbol contact
  : "文立 0852—5586310"
  ? !ruby/symbol geo_id
  : 299
  ? !ruby/symbol intro
  : ~
  ? !ruby/symbol latitude
  : "27.6908521"
  ? !ruby/symbol longitude
  : "106.8886440"
  ? !ruby/symbol name
  : 贵州省武川县砚山镇大桥小学
  ? !ruby/symbol old_id
  : 392
- 
  ? !ruby/symbol address
  : 遵义市武川县砚山镇回龙小学
  ? !ruby/symbol contact
  : "文立 0852—5586310"
  ? !ruby/symbol geo_id
  : 299
  ? !ruby/symbol intro
  : ~
  ? !ruby/symbol latitude
  : "27.6908521"
  ? !ruby/symbol longitude
  : "106.8886440"
  ? !ruby/symbol name
  : 贵州省务川县砚山镇回龙小学
  ? !ruby/symbol old_id
  : 393
- 
  ? !ruby/symbol address
  : 贵州省务川县砚山镇毛田完小
  ? !ruby/symbol contact
  : "文立 0852—5586310"
  ? !ruby/symbol geo_id
  : 299
  ? !ruby/symbol intro
  : ~
  ? !ruby/symbol latitude
  : "28.8004282"
  ? !ruby/symbol longitude
  : "107.9000927"
  ? !ruby/symbol name
  : 遵义市务川县砚山镇毛田完小
  ? !ruby/symbol old_id
  : 394
- 
  ? !ruby/symbol address
  : 贵州省务川县砚山镇石朝完小
  ? !ruby/symbol contact
  : "文立 0852—5586310"
  ? !ruby/symbol geo_id
  : 299
  ? !ruby/symbol intro
  : ~
  ? !ruby/symbol latitude
  : "28.8004280"
  ? !ruby/symbol longitude
  : "107.9000930"
  ? !ruby/symbol name
  : 遵义市务川县砚山镇石朝完小
  ? !ruby/symbol old_id
  : 395
- 
  ? !ruby/symbol address
  : 贵州省务川县砚山镇徐家坝小学
  ? !ruby/symbol contact
  : "文立 0852—5586310"
  ? !ruby/symbol geo_id
  : 299
  ? !ruby/symbol intro
  : ~
  ? !ruby/symbol latitude
  : "28.8004280"
